,Neighbourhood,Neighbourhood Latitude,Neighbourhood Longitude,Venue,Venue Latitude,Venue Longitude,Venue Category
0,De Aker - Nieuw Sloten,52.343079,4.788886,Molen van Sloten,52.34157969249928,4.792270660400391,Monument / Landmark
1,De Aker - Nieuw Sloten,52.343079,4.788886,De Patatza(a)k,52.34146,4.79253,Snack Place
2,De Aker - Nieuw Sloten,52.343079,4.788886,Speeltuin Sloten,52.34170280814588,4.795679272255508,Playground
3,De Aker - Nieuw Sloten,52.343079,4.788886,IJshoeve,52.341324,4.793758,Ice Cream Shop
4,De Aker - Nieuw Sloten,52.343079,4.788886,Syriana,52.34191281246877,4.792767540319466,Middle Eastern Restaurant
5,De Aker - Nieuw Sloten,52.343079,4.788886,Restaurant De Halve Maen,52.34122309174193,4.793097466813496,Restaurant
6,Osdorp,52.35595,4.79661,Şerifoğlu Osdorp,52.35729320045701,4.795337960192134,Dessert Shop
7,Osdorp,52.35595,4.79661,Beymen café & restaurant,52.357292590881656,4.795867714028245,Turkish Restaurant
8,Osdorp,52.35595,4.79661,Warung Spang Makandra,52.35714748238426,4.794915899758567,Indonesian Restaurant
9,Osdorp,52.35595,4.79661,Sahan Restaurant,52.35836579204695,4.8003088795736115,Turkish Restaurant
10,Osdorp,52.35595,4.79661,Stadspark Osdorp,52.35766499732175,4.798734571913346,Park
11,Osdorp,52.35595,4.79661,Ken-Ichi,52.35830225502692,4.800566091948069,Sushi Restaurant
12,Osdorp,52.35595,4.79661,Verona Gelati,52.3565365,4.7928277,Ice Cream Shop
13,Osdorp,52.35595,4.79661,Albert Heijn,52.35215769141597,4.79949761513138,Supermarket
14,Osdorp,52.35595,4.79661,Febo,52.358085330954815,4.800173119234341,Snack Place
15,Osdorp,52.35595,4.79661,Lidl,52.356741329515,4.793327698291337,Supermarket
16,Osdorp,52.35595,4.79661,Coffee Blends,52.358565,4.801622,Coffee Shop
17,Osdorp,52.35595,4.79661,Leziz Restaurant,52.35169859048194,4.798447103054376,Mediterranean Restaurant
18,Osdorp,52.35595,4.79661,Dirk van den Broek,52.358175,4.8027974,Supermarket
19,Osdorp,52.35595,4.79661,Bertram & brood,52.35848,4.800958,Bakery
20,Osdorp,52.35595,4.79661,Cafetaria Eethuis Family,52.35177995961844,4.798943774435929,Snack Place
21,Osdorp,52.35622,4.79544,Şerifoğlu Osdorp,52.35729320045701,4.795337960192134,Dessert Shop
22,Osdorp,52.35622,4.79544,Beymen café & restaurant,52.357292590881656,4.795867714028245,Turkish Restaurant
23,Osdorp,52.35622,4.79544,Warung Spang Makandra,52.35714748238426,4.794915899758567,Indonesian Restaurant
24,Osdorp,52.35622,4.79544,Sahan Restaurant,52.35836579204695,4.8003088795736115,Turkish Restaurant
25,Osdorp,52.35622,4.79544,Stadspark Osdorp,52.35766499732175,4.798734571913346,Park
26,Osdorp,52.35622,4.79544,Ken-Ichi,52.35830225502692,4.800566091948069,Sushi Restaurant
27,Osdorp,52.35622,4.79544,Verona Gelati,52.3565365,4.7928277,Ice Cream Shop
28,Osdorp,52.35622,4.79544,Lidl,52.356741329515,4.793327698291337,Supermarket
29,Osdorp,52.35622,4.79544,Febo,52.358085330954815,4.800173119234341,Snack Place
30,Osdorp,52.35622,4.79544,Coffee Blends,52.358565,4.801622,Coffee Shop
31,Osdorp,52.35622,4.79544,Bertram & brood,52.35848,4.800958,Bakery
32,De Aker - Nieuw Sloten,52.34255,4.80578,Royal Fook Long,52.34503771008483,4.810421442023208,Chinese Restaurant
33,De Aker - Nieuw Sloten,52.34255,4.80578,Velodrome Sloten,52.33967793516416,4.807933258202772,Racetrack
34,De Aker - Nieuw Sloten,52.34255,4.80578,Café Restaurant Kerkzicht,52.34144684057444,4.7995410803678125,Pub
35,De Aker - Nieuw Sloten,52.34255,4.80578,Golfbaan Sloten,52.33932852745056,4.806550741195679,Golf Course
36,De Aker - Nieuw Sloten,52.34255,4.80578,Robic Wielerlab,52.339841,4.808852,Athletics & Sports
37,De Aker - Nieuw Sloten,52.34255,4.80578,Tramhalte Oudenaardeplantsoen,52.34575700888542,4.804167722666789,Tram Station
38,De Aker - Nieuw Sloten,52.34255,4.80578,Be Fresh,52.34569216487811,4.807673350382753,Food Truck
39,De Aker - Nieuw Sloten,52.34255,4.80578,Squashcentrum Match,52.34520713530824,4.809401926579286,Gym / Fitness Center
40,De Aker - Nieuw Sloten,52.34255,4.80578,Eetcafé Match,52.34528390156318,4.809381039168457,Sports Bar
41,De Aker - Nieuw Sloten,52.34255,4.80578,Xenios Veld 4,52.338936,4.8042545,Hockey Field
42,De Aker - Nieuw Sloten,52.34255,4.80578,Gill's Fastfood,52.345301976204745,4.811319065332883,Snack Place
43,De Aker - Nieuw Sloten,52.34255,4.80578,Hulleman brood en banket,52.34529899608376,4.811319442631624,Bakery
44,Geuzenveld - Slotermeer,52.38277,4.80351,Toko Makasar,52.379226000351665,4.8033762790789005,Grocery Store
45,Geuzenveld - Slotermeer,52.38277,4.80351,ikea haarlem,52.38306371240049,4.809012392897289,Furniture / Home Store
46,Geuzenveld - Slotermeer,52.38277,4.80351,Mamma Rosa,52.38230630165417,4.802802939092752,Italian Restaurant
47,Geuzenveld - Slotermeer,52.38277,4.80351,Bushalte Dr.H.Colijnstraat,52.38244437441093,4.805592107720451,Bus Stop
48,Geuzenveld - Slotermeer,52.38277,4.80351,Bushalte J. Cabeliaustraat,52.38229427942488,4.803581128927527,Bus Stop
49,Geuzenveld - Slotermeer,52.38277,4.80351,Snackbar de Noodstop,52.3825459630324,4.806138298113712,Snack Place
50,Geuzenveld - Slotermeer,52.38277,4.80351,Lidl Geuzenveld,52.382137377855386,4.7977700352959145,Supermarket
51,Geuzenveld - Slotermeer,52.38277,4.80351,Eendrachtspark,52.3819484066788,4.80812578163485,Park
52,Geuzenveld - Slotermeer,52.38277,4.80351,Brettenpad,52.38583831306681,4.8032820773351235,Park
53,Geuzenveld - Slotermeer,52.38277,4.80351,Bushalte Aalbersestraat,52.38243130473794,4.797922241121617,Bus Stop
54,Geuzenveld - Slotermeer,52.38277,4.80351,Bakkerij Kara Firi,52.37932243319106,4.803771960221992,Bakery
55,Geuzenveld - Slotermeer,52.38277,4.80351,EMRE Supermarkt,52.37929273349481,4.8039043826549115,Market
56,Geuzenveld - Slotermeer,52.38277,4.80351,Vomar Geuzenpoort Amsterdam,52.37920434184453,4.800849717730753,Grocery Store
57,Slotervaart,52.35896,4.81951,Du Maroc,52.35906467418428,4.825952269530379,Moroccan Restaurant
58,Slotervaart,52.35896,4.81951,Christoffel Plantijnpad - Fietspad,52.356672,4.819031,Trail
59,Slotervaart,52.35896,4.81951,Piet Wiedijkpark,52.35670647012787,4.8206473386768,Park
60,Slotervaart,52.35896,4.81951,Watersportcentrum Sloterplas,52.36030580876479,4.8157258219617125,Harbor / Marina
61,Slotervaart,52.35896,4.81951,Carlson Gracie Holland,52.36046230442928,4.823717337812975,Martial Arts School
62,Slotervaart,52.35896,4.81951,Bushalte Piet Wiedijkstraat,52.357353368472204,4.815042917655123,Bus Stop
63,Slotervaart,52.35896,4.81951,Haven Sloterplas Osdorp,52.35677724652088,4.8143988834723555,Harbor / Marina
64,Osdorp,52.36709,4.79332,Amsterdam Pirates,52.36680381590902,4.799157724829684,Baseball Field
65,Osdorp,52.36709,4.79332,Devo58,52.36786525662117,4.795786537681637,Soccer Field
66,Osdorp,52.36709,4.79332,HollandschSchouwburg monument Holocaust Museum,52.366534376643784,4.7936380695710055,History Museum
67,Osdorp,52.36709,4.79332,Galatasaray Football Academy Amsterdam,52.3672943152939,4.786627330641033,Soccer Field
68,Osdorp,52.36709,4.79332,Speeltuin Wolbrantskerkweg,52.36274823098628,4.795252348491098,Playground
69,Slotervaart,52.35896,4.81951,Du Maroc,52.35906467418428,4.825952269530379,Moroccan Restaurant
70,Slotervaart,52.35896,4.81951,Christoffel Plantijnpad - Fietspad,52.356672,4.819031,Trail
71,Slotervaart,52.35896,4.81951,Piet Wiedijkpark,52.35670647012787,4.8206473386768,Park
72,Slotervaart,52.35896,4.81951,Watersportcentrum Sloterplas,52.36030580876479,4.8157258219617125,Harbor / Marina
73,Slotervaart,52.35896,4.81951,Carlson Gracie Holland,52.36046230442928,4.823717337812975,Martial Arts School
74,Slotervaart,52.35896,4.81951,Bushalte Piet Wiedijkstraat,52.357353368472204,4.815042917655123,Bus Stop
75,Slotervaart,52.35896,4.81951,Haven Sloterplas Osdorp,52.35677724652088,4.8143988834723555,Harbor / Marina
76,Slotervaart,52.35896,4.81951,Du Maroc,52.35906467418428,4.825952269530379,Moroccan Restaurant
77,Slotervaart,52.35896,4.81951,Christoffel Plantijnpad - Fietspad,52.356672,4.819031,Trail
78,Slotervaart,52.35896,4.81951,Piet Wiedijkpark,52.35670647012787,4.8206473386768,Park
79,Slotervaart,52.35896,4.81951,Watersportcentrum Sloterplas,52.36030580876479,4.8157258219617125,Harbor / Marina
80,Slotervaart,52.35896,4.81951,Carlson Gracie Holland,52.36046230442928,4.823717337812975,Martial Arts School
81,Slotervaart,52.35896,4.81951,Bushalte Piet Wiedijkstraat,52.357353368472204,4.815042917655123,Bus Stop
82,Slotervaart,52.35896,4.81951,Haven Sloterplas Osdorp,52.35677724652088,4.8143988834723555,Harbor / Marina
83,Osdorp,52.35969,4.79162,Şerifoğlu Osdorp,52.35729320045701,4.795337960192134,Dessert Shop
84,Osdorp,52.35969,4.79162,Beymen café & restaurant,52.357292590881656,4.795867714028245,Turkish Restaurant
85,Osdorp,52.35969,4.79162,Warung Spang Makandra,52.35714748238426,4.794915899758567,Indonesian Restaurant
86,Osdorp,52.35969,4.79162,New West Inn,52.36252051272109,4.794774637647998,Hotel
87,Osdorp,52.35969,4.79162,Verona Gelati,52.3565365,4.7928277,Ice Cream Shop
88,Osdorp,52.35969,4.79162,Lidl,52.356741329515,4.793327698291337,Supermarket
89,Osdorp,52.35969,4.79162,Vivant Geestman,52.35659568338567,4.792218130802646,Smoke Shop
90,Osdorp,52.35969,4.79162,Steakhouse/Pizzeria Osdorp,52.356567,4.792526,Steakhouse
91,Osdorp,52.35969,4.79162,buongiorno,52.35719153927261,4.795083989767674,Café
92,Osdorp,52.35969,4.79162,Restaurant City West Remco,52.36232668094656,4.794975050066911,Breakfast Spot
93,Osdorp,52.35969,4.79162,Sporthuis Harte,52.361374067411205,4.78529691696167,Hobby Shop
94,Osdorp,52.35969,4.79162,viswinkel,52.360652,4.798524,Fish Market
95,Osdorp,52.35969,4.79162,Dilek Chicken,52.360519231631926,4.784502955982631,Fried Chicken Joint
96,Geuzenveld - Slotermeer,52.38468,4.81532,ikea haarlem,52.38306371240049,4.809012392897289,Furniture / Home Store
97,Geuzenveld - Slotermeer,52.38468,4.81532,Bushalte Anthony Moddermanstraat,52.383294796445675,4.813861639619291,Bus Stop
98,Geuzenveld - Slotermeer,52.38468,4.81532,Basebal,52.384044547634964,4.81721990714859,Baseball Field
99,Geuzenveld - Slotermeer,52.38468,4.81532,Molen De 1200 Roe,52.38454887071264,4.818028992566116,Monument / Landmark
100,Geuzenveld - Slotermeer,52.38468,4.81532,The Sands,52.38870723489094,4.817520349551392,Nightclub
101,De Aker - Nieuw Sloten,52.34238,4.79699,Speeltuin Sloten,52.34170280814588,4.795679272255508,Playground
102,De Aker - Nieuw Sloten,52.34238,4.79699,Molen van Sloten,52.34157969249928,4.792270660400391,Monument / Landmark
103,De Aker - Nieuw Sloten,52.34238,4.79699,De Patatza(a)k,52.34146,4.79253,Snack Place
104,De Aker - Nieuw Sloten,52.34238,4.79699,Café Restaurant Kerkzicht,52.34144684057444,4.7995410803678125,Pub
105,De Aker - Nieuw Sloten,52.34238,4.79699,IJshoeve,52.341324,4.793758,Ice Cream Shop
106,De Aker - Nieuw Sloten,52.34238,4.79699,Restaurant De Halve Maen,52.34122309174193,4.793097466813496,Restaurant
107,De Aker - Nieuw Sloten,52.34238,4.79699,Syriana,52.34191281246877,4.792767540319466,Middle Eastern Restaurant
108,De Aker - Nieuw Sloten,52.34238,4.79699,SBHC Xenios,52.3394501646127,4.795645520588192,Hockey Field
109,De Aker - Nieuw Sloten,52.34238,4.79699,Studio 28,52.338645,4.794454,Comedy Club
110,De Aker - Nieuw Sloten,52.34238,4.79699,Amsterdam Crusaders,52.33971808692828,4.80226993560791,Football Stadium
111,De Aker - Nieuw Sloten,52.34838,4.78878,Jumbo,52.34966245575485,4.786839699212023,Supermarket
112,De Aker - Nieuw Sloten,52.34838,4.78878,Tuincentrum Osdorp,52.351863913456036,4.790668268279103,Garden Center
113,De Aker - Nieuw Sloten,52.34838,4.78878,Tramhalte Ecuplein,52.34982081755209,4.788525192511967,Tram Station
114,De Aker - Nieuw Sloten,52.34838,4.78878,Apotheek De Vaart,52.350017745123516,4.785770381328684,Pharmacy
115,De Aker - Nieuw Sloten,52.34838,4.78878,Tramhalte Inaristraat,52.35035968612119,4.783087979023896,Tram Station
116,De Aker - Nieuw Sloten,52.34736,4.78846,Jumbo,52.34966245575485,4.786839699212023,Supermarket
117,De Aker - Nieuw Sloten,52.34736,4.78846,Tramhalte Ecuplein,52.34982081755209,4.788525192511967,Tram Station
118,De Aker - Nieuw Sloten,52.34736,4.78846,Apotheek De Vaart,52.350017745123516,4.785770381328684,Pharmacy
119,De Aker - Nieuw Sloten,52.34736,4.78846,Tramhalte Inaristraat,52.35035968612119,4.783087979023896,Tram Station
120,De Aker - Nieuw Sloten,52.34559,4.79503,Speeltuin Sloten,52.34170280814588,4.795679272255508,Playground
121,De Aker - Nieuw Sloten,52.34559,4.79503,Molen van Sloten,52.34157969249928,4.792270660400391,Monument / Landmark
122,De Aker - Nieuw Sloten,52.34559,4.79503,De Patatza(a)k,52.34146,4.79253,Snack Place
123,De Aker - Nieuw Sloten,52.34559,4.79503,IJshoeve,52.341324,4.793758,Ice Cream Shop
124,De Aker - Nieuw Sloten,52.34559,4.79503,Syriana,52.34191281246877,4.792767540319466,Middle Eastern Restaurant
125,Geuzenveld - Slotermeer,52.37938,4.81556,Şerifoğlu Gaziantep Baklavacısı,52.38070769936552,4.820165634155273,Dessert Shop
126,Geuzenveld - Slotermeer,52.37938,4.81556,Şerifoğlu Café & Patisserie,52.38038069742179,4.8206722673954925,Dessert Shop
127,Geuzenveld - Slotermeer,52.37938,4.81556,Meram West,52.38023296121058,4.820814088280693,Turkish Restaurant
128,Geuzenveld - Slotermeer,52.37938,4.81556,Istanbul Steak House,52.380516,4.820875,Turkish Restaurant
129,Geuzenveld - Slotermeer,52.37938,4.81556,BeyMen Steakhouse & Cafe,52.3805667015349,4.821009615807667,Turkish Restaurant
130,Geuzenveld - Slotermeer,52.37938,4.81556,Coffeemania Slotermeer,52.3787,4.81992,Café
131,Geuzenveld - Slotermeer,52.37938,4.81556,Tram 13 Geuzenveld - Centraal Station,52.37586832242552,4.814019215202811,Tram Station
132,Geuzenveld - Slotermeer,52.37938,4.81556,ChiqueOLatte,52.379908713007985,4.821978807449341,Coffee Shop
133,Geuzenveld - Slotermeer,52.37938,4.81556,Deep Indian,52.378555949432275,4.813148986046178,Indian Restaurant
134,Geuzenveld - Slotermeer,52.37938,4.81556,DekaMarkt,52.3766003,4.8189586,Supermarket
135,Geuzenveld - Slotermeer,52.37938,4.81556,Juice Bar De Watersnip,52.377158403396606,4.816356897354126,Juice Bar
136,Geuzenveld - Slotermeer,52.37938,4.81556,Döner Plaza,52.38082090966698,4.821073110680584,Turkish Restaurant
137,Geuzenveld - Slotermeer,52.37938,4.81556,New York Pizza Company,52.37720184825441,4.812685274649335,Pizza Place
138,Geuzenveld - Slotermeer,52.37938,4.81556,Bakkerij Derya,52.37795420311244,4.81989333845671,Bakery
139,Geuzenveld - Slotermeer,52.37938,4.81556,Aiki-budo,52.376859481539654,4.812532183362109,Sporting Goods Shop
140,Geuzenveld - Slotermeer,52.37938,4.81556,Ronin Budo Equipment,52.376811,4.812533,Sporting Goods Shop
141,Geuzenveld - Slotermeer,52.37938,4.81556,Meram Burger,52.380195,4.82067,Burger Joint
142,Geuzenveld - Slotermeer,52.37938,4.81556,Tram/Bus-halte Lodewijk Van Deysselstraat,52.37727803933329,4.819687838426024,Bus Stop
143,Geuzenveld - Slotermeer,52.37938,4.81556,Restaurant Blue Square Hotel,52.37862830818974,4.820987695753315,Restaurant
144,Geuzenveld - Slotermeer,52.37938,4.81556,XO Hotel Infinity,52.380806,4.820747,Hotel
145,Geuzenveld - Slotermeer,52.37938,4.81556,Tramhalte Burg. v. Leeuwenlaan,52.376494742484674,4.812107216337886,Tram Station
146,Geuzenveld - Slotermeer,52.37938,4.81556,Action,52.38077842425091,4.821039924823705,Discount Store
147,Geuzenveld - Slotermeer,52.37938,4.81556,Febo,52.3811554,4.82098431,Snack Place
148,Geuzenveld - Slotermeer,52.37938,4.81556,Halal Fried Chicken,52.379787,4.821881,Fast Food Restaurant
149,Geuzenveld - Slotermeer,52.37938,4.81556,Jumbo,52.380655,4.821771,Supermarket
150,Geuzenveld - Slotermeer,52.37938,4.81556,Bushalte Anthony Moddermanstraat,52.383294796445675,4.813861639619291,Bus Stop
151,Geuzenveld - Slotermeer,52.37938,4.81556,Etos,52.38060291509315,4.822225570678711,Pharmacy
152,Geuzenveld - Slotermeer,52.37938,4.81556,Gall & Gall,52.37994286939411,4.822780631745708,Liquor Store
153,Osdorp,52.35251,4.79768,KEYF CAFE,52.351396397205285,4.7965994662101865,Café
154,Osdorp,52.35251,4.79768,Basic-Fit,52.350808359785304,4.795230780543993,Gym
155,Osdorp,52.35251,4.79768,Tuincentrum Osdorp,52.351863913456036,4.790668268279103,Garden Center
156,Osdorp,52.35251,4.79768,Albert Heijn,52.35215769141597,4.79949761513138,Supermarket
157,Osdorp,52.35251,4.79768,Leziz Restaurant,52.35169859048194,4.798447103054376,Mediterranean Restaurant
158,Osdorp,52.35251,4.79768,Cafetaria Eethuis Family,52.35177995961844,4.798943774435929,Snack Place
159,Osdorp,52.35251,4.79768,Taco Mundo,52.35223974660736,4.80127661273474,Mexican Restaurant
160,Osdorp,52.35251,4.79768,Picknick Spot Don & Josien,52.349858147355626,4.7998118421661085,Park
161,Osdorp,52.35251,4.79768,Tramhalte Hoekenes,52.35246887593561,4.802484995485996,Tram Station
162,Osdorp,52.35251,4.79768,Trampoline Baden Powellweg,52.349151611328125,4.79625129699707,Playground
163,De Aker - Nieuw Sloten,52.34274,4.79123,Molen van Sloten,52.34157969249928,4.792270660400391,Monument / Landmark
164,De Aker - Nieuw Sloten,52.34274,4.79123,De Patatza(a)k,52.34146,4.79253,Snack Place
165,De Aker - Nieuw Sloten,52.34274,4.79123,Speeltuin Sloten,52.34170280814588,4.795679272255508,Playground
166,De Aker - Nieuw Sloten,52.34274,4.79123,IJshoeve,52.341324,4.793758,Ice Cream Shop
167,De Aker - Nieuw Sloten,52.34274,4.79123,Restaurant De Halve Maen,52.34122309174193,4.793097466813496,Restaurant
168,De Aker - Nieuw Sloten,52.34274,4.79123,Syriana,52.34191281246877,4.792767540319466,Middle Eastern Restaurant
169,De Aker - Nieuw Sloten,52.34274,4.79123,SBHC Xenios,52.3394501646127,4.795645520588192,Hockey Field
170,De Aker - Nieuw Sloten,52.34467,4.79001,Molen van Sloten,52.34157969249928,4.792270660400391,Monument / Landmark
171,De Aker - Nieuw Sloten,52.34467,4.79001,De Patatza(a)k,52.34146,4.79253,Snack Place
172,De Aker - Nieuw Sloten,52.34467,4.79001,IJshoeve,52.341324,4.793758,Ice Cream Shop
173,De Aker - Nieuw Sloten,52.34467,4.79001,Syriana,52.34191281246877,4.792767540319466,Middle Eastern Restaurant
174,De Aker - Nieuw Sloten,52.34467,4.79001,Restaurant De Halve Maen,52.34122309174193,4.793097466813496,Restaurant
175,De Aker - Nieuw Sloten,52.34364,4.7908,Molen van Sloten,52.34157969249928,4.792270660400391,Monument / Landmark
176,De Aker - Nieuw Sloten,52.34364,4.7908,De Patatza(a)k,52.34146,4.79253,Snack Place
177,De Aker - Nieuw Sloten,52.34364,4.7908,Speeltuin Sloten,52.34170280814588,4.795679272255508,Playground
178,De Aker - Nieuw Sloten,52.34364,4.7908,IJshoeve,52.341324,4.793758,Ice Cream Shop
179,De Aker - Nieuw Sloten,52.34364,4.7908,Syriana,52.34191281246877,4.792767540319466,Middle Eastern Restaurant
180,De Aker - Nieuw Sloten,52.34364,4.7908,Restaurant De Halve Maen,52.34122309174193,4.793097466813496,Restaurant
181,De Aker - Nieuw Sloten,52.34907,4.77346,Fitnessclub Friends 4 Life,52.348280989554844,4.769408704266727,Gym / Fitness Center
182,De Aker - Nieuw Sloten,52.34907,4.77346,Harry Meijer BMW Motoren,52.3473579569417,4.766867528090687,Motorcycle Shop
183,De Aker - Nieuw Sloten,52.34907,4.77346,Nike Town Badhoevedorp,52.34769815503389,4.773500735423971,Museum
184,De Aker - Nieuw Sloten,52.34907,4.77346,Akerdijk,52.35003459047866,4.769740104675293,Trail
185,De Aker - Nieuw Sloten,52.34907,4.77346,Schommels op het hoekje,52.35051955109297,4.770040512084961,Playground
186,De Aker - Nieuw Sloten,52.34907,4.77346,Singer Auto Garage,52.348347,4.768865,Auto Workshop
187,De Aker - Nieuw Sloten,52.34907,4.77346,Terpstra Muziek,52.348841,4.767918,Music Store
188,De Aker - Nieuw Sloten,52.34907,4.77346,Jachthaven De hooglanden,52.353161,4.771116,Harbor / Marina
189,De Aker - Nieuw Sloten,52.34907,4.77346,Tramhalte Pilatus,52.3530576158259,4.776516654248902,Tram Station
190,De Aker - Nieuw Sloten,52.34907,4.77346,Restaurant Pizzeria il Paradiso,52.35112549620568,4.779937581826617,Pizza Place
191,De Aker - Nieuw Sloten,52.34546,4.79649,Speeltuin Sloten,52.34170280814588,4.795679272255508,Playground
192,De Aker - Nieuw Sloten,52.34546,4.79649,Café Restaurant Kerkzicht,52.34144684057444,4.7995410803678125,Pub
193,De Aker - Nieuw Sloten,52.34546,4.79649,IJshoeve,52.341324,4.793758,Ice Cream Shop
194,De Aker - Nieuw Sloten,52.34546,4.79649,Syriana,52.34191281246877,4.792767540319466,Middle Eastern Restaurant
195,Geuzenveld - Slotermeer,52.37788,4.8029,Hunkar Restaurant,52.37830173256485,4.8010791850075,Turkish Restaurant
196,Geuzenveld - Slotermeer,52.37788,4.8029,Toko Makasar,52.379226000351665,4.8033762790789005,Grocery Store
197,Geuzenveld - Slotermeer,52.37788,4.8029,Kruidvat,52.378187876666246,4.801579692200979,Drugstore
198,Geuzenveld - Slotermeer,52.37788,4.8029,Tramhalte Lambertus Zijlplein,52.37741682296526,4.803034876159117,Tram Station
199,Geuzenveld - Slotermeer,52.37788,4.8029,"Lambertus Zijlplein, amsterdam",52.377815,4.801184,Plaza
200,Geuzenveld - Slotermeer,52.37788,4.8029,Bakkerij Kara Firi,52.37932243319106,4.803771960221992,Bakery
201,Geuzenveld - Slotermeer,52.37788,4.8029,Versshop Özcan,52.37776379886488,4.801364793097988,Convenience Store
202,Geuzenveld - Slotermeer,52.37788,4.8029,EMRE Supermarkt,52.37929273349481,4.8039043826549115,Market
203,Geuzenveld - Slotermeer,52.37788,4.8029,Vomar Geuzenpoort Amsterdam,52.37920434184453,4.800849717730753,Grocery Store
204,Geuzenveld - Slotermeer,52.37788,4.8029,Tramhalte Colijnstraat,52.37695,4.806191325187683,Tram Station
205,Geuzenveld - Slotermeer,52.37788,4.8029,Aalbersestraat,52.37609121371561,4.797622454545146,Trail
206,Geuzenveld - Slotermeer,52.37788,4.8029,Mamma Rosa,52.38230630165417,4.802802939092752,Italian Restaurant
207,Geuzenveld - Slotermeer,52.37788,4.8029,Bushalte J. Cabeliaustraat,52.38229427942488,4.803581128927527,Bus Stop
208,De Aker - Nieuw Sloten,52.33872,4.79454,Later aan het water,52.33753150966372,4.794777138411776,Restaurant
209,De Aker - Nieuw Sloten,52.33872,4.79454,Molen van Sloten,52.34157969249928,4.792270660400391,Monument / Landmark
210,De Aker - Nieuw Sloten,52.33872,4.79454,De Patatza(a)k,52.34146,4.79253,Snack Place
211,De Aker - Nieuw Sloten,52.33872,4.79454,Speeltuin Sloten,52.34170280814588,4.795679272255508,Playground
212,De Aker - Nieuw Sloten,52.33872,4.79454,zwemschool vogel,52.335365394451884,4.794810165424971,Water Park
213,De Aker - Nieuw Sloten,52.33872,4.79454,IJshoeve,52.341324,4.793758,Ice Cream Shop
214,De Aker - Nieuw Sloten,52.33872,4.79454,Café Restaurant Kerkzicht,52.34144684057444,4.7995410803678125,Pub
215,De Aker - Nieuw Sloten,52.33872,4.79454,Restaurant De Halve Maen,52.34122309174193,4.793097466813496,Restaurant
216,De Aker - Nieuw Sloten,52.33872,4.79454,Syriana,52.34191281246877,4.792767540319466,Middle Eastern Restaurant
217,De Aker - Nieuw Sloten,52.33872,4.79454,SBHC Xenios,52.3394501646127,4.795645520588192,Hockey Field
218,De Aker - Nieuw Sloten,52.33872,4.79454,Studio 28,52.338645,4.794454,Comedy Club
219,De Aker - Nieuw Sloten,52.33872,4.79454,Arie Haring,52.34169817156776,4.793168992978021,Fish & Chips Shop
220,De Aker - Nieuw Sloten,52.33872,4.79454,Café Louman's Hoekje,52.341263320634845,4.790864085933609,Café
221,De Aker - Nieuw Sloten,52.33872,4.79454,Bushalte Rijstvogelstraat,52.33586352768354,4.790135622024536,Bus Stop
222,De Aker - Nieuw Sloten,52.33872,4.79454,Aviation Megastore Aalsmeerderbrug,52.33459400495878,4.793428611074385,Hobby Shop
223,Osdorp,52.36131,4.79003,Restaurant Bir Bey,52.36117237541153,4.783209761807791,Turkish Restaurant
224,Osdorp,52.36131,4.79003,Caffé Tostini,52.359925,4.783179,Café
225,Osdorp,52.36131,4.79003,New West Inn,52.36252051272109,4.794774637647998,Hotel
226,Osdorp,52.36131,4.79003,Sky Palace,52.361232232548595,4.784005088886827,Piano Bar
227,Osdorp,52.36131,4.79003,SUBWAY®,52.3606374,4.7831085,Sandwich Place
228,Osdorp,52.36131,4.79003,Sporthuis Harte,52.361374067411205,4.78529691696167,Hobby Shop
229,Osdorp,52.36131,4.79003,MediaMarkt,52.359868005417916,4.783461789095296,Electronics Store
230,Osdorp,52.36131,4.79003,Restaurant City West Remco,52.36232668094656,4.794975050066911,Breakfast Spot
231,Osdorp,52.36131,4.79003,Dilek Chicken,52.360519231631926,4.784502955982631,Fried Chicken Joint
232,Osdorp,52.36131,4.79003,Salon Osdorp,52.36120480602226,4.7837334786570604,Lounge
233,Osdorp,52.36131,4.79003,Koopcentrum Akerpoort,52.3602799196763,4.7836782481608955,Shopping Mall
234,De Aker - Nieuw Sloten,52.34679,4.80295,Tramhalte Oudenaardeplantsoen,52.34575700888542,4.804167722666789,Tram Station
235,De Aker - Nieuw Sloten,52.34679,4.80295,Be Fresh,52.34569216487811,4.807673350382753,Food Truck
236,De Aker - Nieuw Sloten,52.34679,4.80295,Picknick Spot Don & Josien,52.349858147355626,4.7998118421661085,Park
237,De Aker - Nieuw Sloten,52.34679,4.80295,Eetcafé Match,52.34528390156318,4.809381039168457,Sports Bar
238,De Aker - Nieuw Sloten,52.34679,4.80295,Squashcentrum Match,52.34520713530824,4.809401926579286,Gym / Fitness Center
239,De Aker - Nieuw Sloten,52.34705,4.79025,Jumbo,52.34966245575485,4.786839699212023,Supermarket
240,De Aker - Nieuw Sloten,52.34705,4.79025,Kaasspecialist Dukaat,52.348364,4.789208,Cheese Shop
241,De Aker - Nieuw Sloten,52.34705,4.79025,Tramhalte Ecuplein,52.34982081755209,4.788525192511967,Tram Station
242,De Aker - Nieuw Sloten,52.34705,4.79025,Lelijk Kunstwerk,52.34634,4.78479,Art Gallery
243,De Aker - Nieuw Sloten,52.34705,4.79025,Apotheek De Vaart,52.350017745123516,4.785770381328684,Pharmacy
244,De Aker - Nieuw Sloten,52.34705,4.79025,Dog Meeting Point De Oude Molen,52.346991462151195,4.783481823494809,Dog Run
245,De Aker - Nieuw Sloten,52.34705,4.79025,Dog Park,52.34885146775094,4.796415348169853,Dog Run
246,Osdorp,52.3578,4.78678,Supercoop,52.35532059234887,4.78564116798942,Grocery Store
247,Osdorp,52.3578,4.78678,Caffé Tostini,52.359925,4.783179,Café
248,Osdorp,52.3578,4.78678,Action,52.360878442853426,4.782429300217855,Discount Store
249,Osdorp,52.3578,4.78678,Restaurant Bir Bey,52.36117237541153,4.783209761807791,Turkish Restaurant
250,Osdorp,52.3578,4.78678,G-Star Outlet,52.360043,4.782334,Clothing Store
251,Osdorp,52.3578,4.78678,Sky Palace,52.361232232548595,4.784005088886827,Piano Bar
252,Osdorp,52.3578,4.78678,KFC,52.35971431,4.78180732,Fast Food Restaurant
253,Osdorp,52.3578,4.78678,Nike Factory Store,52.3603214,4.7819147,Sporting Goods Shop
254,Osdorp,52.3578,4.78678,Verona Gelati,52.3565365,4.7928277,Ice Cream Shop
255,Osdorp,52.3578,4.78678,Just Brands Outlet,52.360728093937716,4.782211752677655,Clothing Store
256,Osdorp,52.3578,4.78678,MediaMarkt,52.359868005417916,4.783461789095296,Electronics Store
257,Osdorp,52.3578,4.78678,Primera,52.355973,4.785978,Convenience Store
258,Osdorp,52.3578,4.78678,SUBWAY®,52.3606374,4.7831085,Sandwich Place
259,Osdorp,52.3578,4.78678,Dijkgraafplein,52.3553785536078,4.785748046848131,Neighborhood
260,Osdorp,52.3578,4.78678,Lidl,52.356741329515,4.793327698291337,Supermarket
261,Osdorp,52.3578,4.78678,Dilek Chicken,52.360519231631926,4.784502955982631,Fried Chicken Joint
262,Osdorp,52.3578,4.78678,Koopcentrum Akerpoort,52.3602799196763,4.7836782481608955,Shopping Mall
263,Osdorp,52.3578,4.78678,Jumper,52.36098269120562,4.782538331048825,Pet Store
264,Osdorp,52.3578,4.78678,Vivant Geestman,52.35659568338567,4.792218130802646,Smoke Shop
265,Osdorp,52.3578,4.78678,Sporthuis Harte,52.361374067411205,4.78529691696167,Hobby Shop
266,Osdorp,52.3578,4.78678,Steakhouse/Pizzeria Osdorp,52.356567,4.792526,Steakhouse
267,Osdorp,52.3578,4.78678,Salon Osdorp,52.36120480602226,4.7837334786570604,Lounge
268,Geuzenveld - Slotermeer,52.37186,4.81754,Sloterpark,52.368775258726565,4.817047058022581,Park
269,Geuzenveld - Slotermeer,52.37186,4.81754,Sloterparkbad,52.37052086012731,4.817250517766272,Pool
270,Geuzenveld - Slotermeer,52.37186,4.81754,Strand Sloterplas,52.37166914165059,4.822568893432617,Beach
271,Geuzenveld - Slotermeer,52.37186,4.81754,Rondje Sloterplas 6 km,52.37537968628511,4.820278399087894,Park
272,Geuzenveld - Slotermeer,52.37186,4.81754,Hotel Buiten,52.37079125269816,4.820910257769254,Restaurant
273,Geuzenveld - Slotermeer,52.37186,4.81754,Grieks Specialiteitenrestaurant Plato,52.37442111277137,4.812479816065777,Greek Restaurant
274,Geuzenveld - Slotermeer,52.37186,4.81754,Basic-Fit,52.36985878045366,4.817473623220785,Gym
275,Geuzenveld - Slotermeer,52.37186,4.81754,Kinderboerderij,52.37161484604429,4.815101955869878,Playground
276,Geuzenveld - Slotermeer,52.37186,4.81754,Tram 7 Slotermeer - Azartplein,52.37283508852098,4.818964004516602,Tram Station
277,Geuzenveld - Slotermeer,52.37186,4.81754,Natuurspeeltuin de Natureluur,52.37094536604687,4.813045033249335,Playground
278,Geuzenveld - Slotermeer,52.37186,4.81754,Ruige Riet,52.37172264544949,4.812608228515655,Trail
279,Geuzenveld - Slotermeer,52.37186,4.81754,Voetbalveldje,52.37478751929058,4.821743293805636,Playground
280,Geuzenveld - Slotermeer,52.37186,4.81754,Bar Content,52.37543733912106,4.8202885981986645,Bar
281,Geuzenveld - Slotermeer,52.37186,4.81754,Confuciusplein,52.37469645737821,4.812741264926235,Plaza
282,Osdorp,52.34965,4.79548,KEYF CAFE,52.351396397205285,4.7965994662101865,Café
283,Osdorp,52.34965,4.79548,Basic-Fit,52.350808359785304,4.795230780543993,Gym
284,Osdorp,52.34965,4.79548,Tuincentrum Osdorp,52.351863913456036,4.790668268279103,Garden Center
285,Osdorp,52.34965,4.79548,Albert Heijn,52.35215769141597,4.79949761513138,Supermarket
286,Osdorp,52.34965,4.79548,Leziz Restaurant,52.35169859048194,4.798447103054376,Mediterranean Restaurant
287,Osdorp,52.34965,4.79548,Osdorpse Posse,52.351081119778165,4.795026872779949,BBQ Joint
288,Osdorp,52.34965,4.79548,Trampoline Baden Powellweg,52.349151611328125,4.79625129699707,Playground
289,Osdorp,52.34965,4.79548,Hammam Shifa,52.350989623095465,4.794842764918363,Spa
290,Osdorp,52.34965,4.79548,Digital Warehouse XL,52.35167281287092,4.797847516220576,Miscellaneous Shop
291,Osdorp,52.34965,4.79548,Etos,52.35168323953952,4.798213048298543,Drugstore
292,Osdorp,52.34965,4.79548,Picknick Spot Don & Josien,52.349858147355626,4.7998118421661085,Park
293,Osdorp,52.34965,4.79548,Domino's Pizza,52.352040803741055,4.798868103242285,Pizza Place
294,Osdorp,52.34965,4.79548,Ins Nikita (Michèle's ResQ bunker),52.353559215673485,4.795342140019286,Playground
295,Osdorp,52.34965,4.79548,De Kaas Specialist,52.34834,4.789209,Cheese Shop
296,Osdorp,52.34965,4.79548,Bakkerij van Toor - de Aker,52.34959360759057,4.788845324743155,Bakery
297,Osdorp,52.34965,4.79548,Vishandel Schilder,52.348359,4.789036,Fish Market
298,Osdorp,52.34965,4.79548,Tramhalte Ecuplein,52.34982081755209,4.788525192511967,Tram Station
299,Osdorp,52.34965,4.79548,Taco Mundo,52.35223974660736,4.80127661273474,Mexican Restaurant
300,De Aker - Nieuw Sloten,52.34668,4.8071,Royal Fook Long,52.34503771008483,4.810421442023208,Chinese Restaurant
301,De Aker - Nieuw Sloten,52.34668,4.8071,Dirk van den Broek,52.34589133748832,4.811603652778558,Grocery Store
302,De Aker - Nieuw Sloten,52.34668,4.8071,Kruidvat,52.34575554249213,4.811165726797465,Drugstore
303,De Aker - Nieuw Sloten,52.34668,4.8071,Albert Heijn,52.345800652064945,4.811065404477762,Supermarket
304,De Aker - Nieuw Sloten,52.34668,4.8071,Be Fresh,52.34569216487811,4.807673350382753,Food Truck
305,De Aker - Nieuw Sloten,52.34668,4.8071,Eetcafé Match,52.34528390156318,4.809381039168457,Sports Bar
306,De Aker - Nieuw Sloten,52.34668,4.8071,Tramhalte Oudenaardeplantsoen,52.34575700888542,4.804167722666789,Tram Station
307,De Aker - Nieuw Sloten,52.34668,4.8071,Squashcentrum Match,52.34520713530824,4.809401926579286,Gym / Fitness Center
308,De Aker - Nieuw Sloten,52.34668,4.8071,Kasterleepark,52.347507670627856,4.810313460901912,Park
309,De Aker - Nieuw Sloten,52.34668,4.8071,Bruna,52.34593197903798,4.811123523520474,Paper / Office Supplies Store
310,De Aker - Nieuw Sloten,52.34668,4.8071,Gill's Fastfood,52.345301976204745,4.811319065332883,Snack Place
311,De Aker - Nieuw Sloten,52.34668,4.8071,Hulleman brood en banket,52.34529899608376,4.811319442631624,Bakery
312,De Aker - Nieuw Sloten,52.34668,4.8071,Bushalte Hageland,52.345109,4.812582,Bus Stop
313,De Aker - Nieuw Sloten,52.34865,4.80829,Royal Fook Long,52.34503771008483,4.810421442023208,Chinese Restaurant
314,De Aker - Nieuw Sloten,52.34865,4.80829,Dirk van den Broek,52.34589133748832,4.811603652778558,Grocery Store
315,De Aker - Nieuw Sloten,52.34865,4.80829,Kruidvat,52.34575554249213,4.811165726797465,Drugstore
316,De Aker - Nieuw Sloten,52.34865,4.80829,Albert Heijn,52.345800652064945,4.811065404477762,Supermarket
317,De Aker - Nieuw Sloten,52.34865,4.80829,Kasterleepark,52.347507670627856,4.810313460901912,Park
318,De Aker - Nieuw Sloten,52.34865,4.80829,Tramhalte Kasterleepark,52.34632880441356,4.810481024446929,Tram Station
319,De Aker - Nieuw Sloten,52.34865,4.80829,Amsterdam Flowers,52.346194,4.81106,Flower Shop
320,De Aker - Nieuw Sloten,52.34865,4.80829,Be Fresh,52.34569216487811,4.807673350382753,Food Truck
321,De Aker - Nieuw Sloten,52.34865,4.80829,Eetcafé Match,52.34528390156318,4.809381039168457,Sports Bar
322,De Aker - Nieuw Sloten,52.34865,4.80829,Gall & Gall,52.345674,4.811227,Liquor Store
323,De Aker - Nieuw Sloten,52.34865,4.80829,Squashcentrum Match,52.34520713530824,4.809401926579286,Gym / Fitness Center
324,De Aker - Nieuw Sloten,52.34865,4.80829,Sportcentrum Match,52.345062900253964,4.809463519536483,Gym
325,De Aker - Nieuw Sloten,52.34865,4.80829,Blokker,52.345385,4.811068,Furniture / Home Store
326,De Aker - Nieuw Sloten,52.34865,4.80829,Gill's Fastfood,52.345301976204745,4.811319065332883,Snack Place
327,De Aker - Nieuw Sloten,52.34865,4.80829,Hulleman brood en banket,52.34529899608376,4.811319442631624,Bakery
328,De Aker - Nieuw Sloten,52.34865,4.80829,Tramhalte Oudenaardeplantsoen,52.34575700888542,4.804167722666789,Tram Station
329,De Aker - Nieuw Sloten,52.34865,4.80829,Bushalte Hageland,52.345109,4.812582,Bus Stop
330,Osdorp,52.3572,4.78946,Şerifoğlu Osdorp,52.35729320045701,4.795337960192134,Dessert Shop
331,Osdorp,52.3572,4.78946,Supercoop,52.35532059234887,4.78564116798942,Grocery Store
332,Osdorp,52.3572,4.78946,Beymen café & restaurant,52.357292590881656,4.795867714028245,Turkish Restaurant
333,Osdorp,52.3572,4.78946,Warung Spang Makandra,52.35714748238426,4.794915899758567,Indonesian Restaurant
334,Osdorp,52.3572,4.78946,Verona Gelati,52.3565365,4.7928277,Ice Cream Shop
335,Osdorp,52.3572,4.78946,Lidl,52.356741329515,4.793327698291337,Supermarket
336,Osdorp,52.3572,4.78946,Primera,52.355973,4.785978,Convenience Store
337,Osdorp,52.3572,4.78946,Dijkgraafplein,52.3553785536078,4.785748046848131,Neighborhood
338,Osdorp,52.3572,4.78946,Dilek Chicken,52.360519231631926,4.784502955982631,Fried Chicken Joint
339,De Aker - Nieuw Sloten,52.34776,4.77631,Fitnessclub Friends 4 Life,52.348280989554844,4.769408704266727,Gym / Fitness Center
340,De Aker - Nieuw Sloten,52.34776,4.77631,Theehuis de Akermolen,52.34601173648387,4.781351305760543,Tea Room
341,De Aker - Nieuw Sloten,52.34776,4.77631,Nike Town Badhoevedorp,52.34769815503389,4.773500735423971,Museum
342,De Aker - Nieuw Sloten,52.34776,4.77631,Restaurant Pizzeria il Paradiso,52.35112549620568,4.779937581826617,Pizza Place
343,De Aker - Nieuw Sloten,52.34303,4.79768,Speeltuin Sloten,52.34170280814588,4.795679272255508,Playground
344,De Aker - Nieuw Sloten,52.34303,4.79768,Molen van Sloten,52.34157969249928,4.792270660400391,Monument / Landmark
345,De Aker - Nieuw Sloten,52.34303,4.79768,De Patatza(a)k,52.34146,4.79253,Snack Place
346,De Aker - Nieuw Sloten,52.34303,4.79768,Café Restaurant Kerkzicht,52.34144684057444,4.7995410803678125,Pub
347,De Aker - Nieuw Sloten,52.34303,4.79768,IJshoeve,52.341324,4.793758,Ice Cream Shop
348,De Aker - Nieuw Sloten,52.34303,4.79768,Restaurant De Halve Maen,52.34122309174193,4.793097466813496,Restaurant
349,De Aker - Nieuw Sloten,52.34303,4.79768,Syriana,52.34191281246877,4.792767540319466,Middle Eastern Restaurant
350,De Aker - Nieuw Sloten,52.34303,4.79768,SBHC Xenios,52.3394501646127,4.795645520588192,Hockey Field
351,De Aker - Nieuw Sloten,52.33312,4.80405,Sv Nieuw-Sloten,52.33567708098997,4.80400982016587,Athletics & Sports
352,De Aker - Nieuw Sloten,52.33312,4.80405,Wijntje?,52.331278595499704,4.808524642395623,Wine Shop
353,De Aker - Nieuw Sloten,52.33312,4.80405,Vin Diesel Cafe,52.3311855053197,4.7995443085240215,Café
354,De Aker - Nieuw Sloten,52.33312,4.80405,Quick 1913,52.336766759429274,4.804806749977274,Baseball Field
355,De Aker - Nieuw Sloten,52.33312,4.80405,Amrâth Apart Hotel,52.334087,4.797745,Hotel
356,Osdorp,52.35939,4.78478,Action,52.360878442853426,4.782429300217855,Discount Store
357,Osdorp,52.35939,4.78478,Caffé Tostini,52.359925,4.783179,Café
358,Osdorp,52.35939,4.78478,Restaurant Bir Bey,52.36117237541153,4.783209761807791,Turkish Restaurant
359,Osdorp,52.35939,4.78478,Sky Palace,52.361232232548595,4.784005088886827,Piano Bar
360,Osdorp,52.35939,4.78478,G-Star Outlet,52.360043,4.782334,Clothing Store
361,Osdorp,52.35939,4.78478,KFC,52.35971431,4.78180732,Fast Food Restaurant
362,Osdorp,52.35939,4.78478,Supercoop,52.35532059234887,4.78564116798942,Grocery Store
363,Osdorp,52.35939,4.78478,Nike Factory Store,52.3603214,4.7819147,Sporting Goods Shop
364,Osdorp,52.35939,4.78478,Just Brands Outlet,52.360728093937716,4.782211752677655,Clothing Store
365,Osdorp,52.35939,4.78478,SUBWAY®,52.3606374,4.7831085,Sandwich Place
366,Osdorp,52.35939,4.78478,MediaMarkt,52.359868005417916,4.783461789095296,Electronics Store
367,Osdorp,52.35939,4.78478,Jumper,52.36098269120562,4.782538331048825,Pet Store
368,Osdorp,52.35939,4.78478,Koopcentrum Akerpoort,52.3602799196763,4.7836782481608955,Shopping Mall
369,Osdorp,52.35939,4.78478,Dilek Chicken,52.360519231631926,4.784502955982631,Fried Chicken Joint
370,Osdorp,52.35939,4.78478,Salon Osdorp,52.36120480602226,4.7837334786570604,Lounge
371,Osdorp,52.35939,4.78478,Sporthuis Harte,52.361374067411205,4.78529691696167,Hobby Shop
372,Osdorp,52.35939,4.78478,Primera,52.355973,4.785978,Convenience Store
373,Osdorp,52.35939,4.78478,Dijkgraafplein,52.3553785536078,4.785748046848131,Neighborhood
374,De Aker - Nieuw Sloten,52.33532,4.80079,zwemschool vogel,52.335365394451884,4.794810165424971,Water Park
375,De Aker - Nieuw Sloten,52.33532,4.80079,Later aan het water,52.33753150966372,4.794777138411776,Restaurant
376,De Aker - Nieuw Sloten,52.33532,4.80079,Sv Nieuw-Sloten,52.33567708098997,4.80400982016587,Athletics & Sports
377,De Aker - Nieuw Sloten,52.33532,4.80079,Amrâth Apart Hotel,52.334087,4.797745,Hotel
378,De Aker - Nieuw Sloten,52.33532,4.80079,Quick 1913,52.336766759429274,4.804806749977274,Baseball Field
379,De Aker - Nieuw Sloten,52.33532,4.80079,Xenios Veld 4,52.338936,4.8042545,Hockey Field
380,De Aker - Nieuw Sloten,52.33532,4.80079,Speeltuin Badhoevedorp,52.334221,4.794141,Playground
381,De Aker - Nieuw Sloten,52.33532,4.80079,Vin Diesel Cafe,52.3311855053197,4.7995443085240215,Café
382,De Aker - Nieuw Sloten,52.33532,4.80079,Amsterdam Crusaders,52.33971808692828,4.80226993560791,Football Stadium
383,De Aker - Nieuw Sloten,52.34212,4.79794,Speeltuin Sloten,52.34170280814588,4.795679272255508,Playground
384,De Aker - Nieuw Sloten,52.34212,4.79794,Molen van Sloten,52.34157969249928,4.792270660400391,Monument / Landmark
385,De Aker - Nieuw Sloten,52.34212,4.79794,De Patatza(a)k,52.34146,4.79253,Snack Place
386,De Aker - Nieuw Sloten,52.34212,4.79794,Café Restaurant Kerkzicht,52.34144684057444,4.7995410803678125,Pub
387,De Aker - Nieuw Sloten,52.34212,4.79794,IJshoeve,52.341324,4.793758,Ice Cream Shop
388,De Aker - Nieuw Sloten,52.34212,4.79794,Restaurant De Halve Maen,52.34122309174193,4.793097466813496,Restaurant
389,De Aker - Nieuw Sloten,52.34212,4.79794,Syriana,52.34191281246877,4.792767540319466,Middle Eastern Restaurant
390,De Aker - Nieuw Sloten,52.34212,4.79794,SBHC Xenios,52.3394501646127,4.795645520588192,Hockey Field
391,De Aker - Nieuw Sloten,52.34212,4.79794,Arie Haring,52.34169817156776,4.793168992978021,Fish & Chips Shop
392,De Aker - Nieuw Sloten,52.34212,4.79794,Studio 28,52.338645,4.794454,Comedy Club
393,De Aker - Nieuw Sloten,52.34212,4.79794,Café Louman's Hoekje,52.341263320634845,4.790864085933609,Café
394,Osdorp,52.36505,4.80335,Amsterdam Pirates,52.36680381590902,4.799157724829684,Baseball Field
395,Osdorp,52.36505,4.80335,Sporthal Ookmeer,52.368133009519845,4.804671089596365,Soccer Field
396,Osdorp,52.36505,4.80335,USC ClubWest,52.366924383609515,4.801022997721631,Gym / Fitness Center
397,Osdorp,52.36505,4.80335,ALDI,52.36201356294424,4.79874443971607,Supermarket
398,Osdorp,52.36505,4.80335,Bushalte Oeverpad,52.365032844402585,4.804221793770067,Bus Stop
399,Osdorp,52.36505,4.80335,Kwun Wah,52.362497233978566,4.801762495394898,Chinese Restaurant
400,Osdorp,52.36505,4.80335,D.C.G.,52.365854639597494,4.7980551585685465,Soccer Field
401,Osdorp,52.36505,4.80335,bakkerij kara firin osdorper ban,52.362237,4.799815,Bakery
402,Osdorp,52.36505,4.80335,Herman Bonpad,52.36891000428787,4.800687009201496,Bus Stop
403,Osdorp,52.35229,4.81457,Toko Bandung,52.354357760869604,4.810843080812593,Indonesian Restaurant
404,Osdorp,52.35229,4.81457,Enfes,52.354056719419354,4.810545403296009,Turkish Restaurant
405,Osdorp,52.35229,4.81457,Snackbar 88,52.35448767489429,4.812279790151378,Snack Place
406,Osdorp,52.35229,4.81457,Wok Hut,52.354388553431754,4.811438639374242,Chinese Restaurant
407,Osdorp,52.35229,4.81457,New York Pizza,52.35397665,4.81074514,Pizza Place
408,Osdorp,52.35229,4.81457,Amsterdam West,52.35432054521362,4.810293976281516,Lake
409,Osdorp,52.35229,4.81457,Tramhalte Louis Davidsstraat,52.35388923040853,4.808980708424195,Tram Station
410,Osdorp,52.36665,4.8072,Sporthal Ookmeer,52.368133009519845,4.804671089596365,Soccer Field
411,Osdorp,52.36665,4.8072,USC ClubWest,52.366924383609515,4.801022997721631,Gym / Fitness Center
412,Osdorp,52.36665,4.8072,Time Out Sportcafe,52.36797497985042,4.8048288664537475,Hookah Bar
413,Osdorp,52.36665,4.8072,Bushalte Oeverpad,52.365032844402585,4.804221793770067,Bus Stop
414,Osdorp,52.36665,4.8072,Sloterpark heuvel,52.3645506929301,4.8132106099153615,Ski Area
415,Osdorp,52.36665,4.8072,Ookmeer Atletiekbaan,52.370571393052714,4.803683143871465,Track
416,De Aker - Nieuw Sloten,52.34292,4.80643,Royal Fook Long,52.34503771008483,4.810421442023208,Chinese Restaurant
417,De Aker - Nieuw Sloten,52.34292,4.80643,Velodrome Sloten,52.33967793516416,4.807933258202772,Racetrack
418,De Aker - Nieuw Sloten,52.34292,4.80643,Café Restaurant Kerkzicht,52.34144684057444,4.7995410803678125,Pub
419,De Aker - Nieuw Sloten,52.34292,4.80643,Dirk van den Broek,52.34589133748832,4.811603652778558,Grocery Store
420,De Aker - Nieuw Sloten,52.34292,4.80643,Kruidvat,52.34575554249213,4.811165726797465,Drugstore
421,De Aker - Nieuw Sloten,52.34292,4.80643,Albert Heijn,52.345800652064945,4.811065404477762,Supermarket
422,De Aker - Nieuw Sloten,52.34292,4.80643,Be Fresh,52.34569216487811,4.807673350382753,Food Truck
423,De Aker - Nieuw Sloten,52.34292,4.80643,Squashcentrum Match,52.34520713530824,4.809401926579286,Gym / Fitness Center
424,De Aker - Nieuw Sloten,52.34292,4.80643,Eetcafé Match,52.34528390156318,4.809381039168457,Sports Bar
425,De Aker - Nieuw Sloten,52.34292,4.80643,Tramhalte Oudenaardeplantsoen,52.34575700888542,4.804167722666789,Tram Station
426,De Aker - Nieuw Sloten,52.34292,4.80643,Robic Wielerlab,52.339841,4.808852,Athletics & Sports
427,De Aker - Nieuw Sloten,52.34292,4.80643,Golfbaan Sloten,52.33932852745056,4.806550741195679,Golf Course
428,De Aker - Nieuw Sloten,52.34292,4.80643,Gill's Fastfood,52.345301976204745,4.811319065332883,Snack Place
429,De Aker - Nieuw Sloten,52.34292,4.80643,Hulleman brood en banket,52.34529899608376,4.811319442631624,Bakery
430,De Aker - Nieuw Sloten,52.34292,4.80643,Bruna,52.34593197903798,4.811123523520474,Paper / Office Supplies Store
431,De Aker - Nieuw Sloten,52.34292,4.80643,Xenios Veld 4,52.338936,4.8042545,Hockey Field
432,De Aker - Nieuw Sloten,52.34292,4.80643,Bushalte Hageland,52.345109,4.812582,Bus Stop
433,Osdorp,52.35225,4.80131,KEYF CAFE,52.351396397205285,4.7965994662101865,Café
434,Osdorp,52.35225,4.80131,Basic-Fit,52.350808359785304,4.795230780543993,Gym
435,Osdorp,52.35225,4.80131,Sportcentrum Caland,52.354371026172096,4.807131832054338,Gym / Fitness Center
436,Osdorp,52.35225,4.80131,Albert Heijn,52.35215769141597,4.79949761513138,Supermarket
437,Osdorp,52.35225,4.80131,Leziz Restaurant,52.35169859048194,4.798447103054376,Mediterranean Restaurant
438,Osdorp,52.35225,4.80131,Domino's Pizza,52.352040803741055,4.798868103242285,Pizza Place
439,Osdorp,52.35225,4.80131,Etos,52.35168323953952,4.798213048298543,Drugstore
440,Osdorp,52.35225,4.80131,Digital Warehouse XL,52.35167281287092,4.797847516220576,Miscellaneous Shop
441,Osdorp,52.35225,4.80131,Ins Nikita (Michèle's ResQ bunker),52.353559215673485,4.795342140019286,Playground
442,Osdorp,52.35225,4.80131,Osdorpse Posse,52.351081119778165,4.795026872779949,BBQ Joint
443,Osdorp,52.35225,4.80131,Calandfit,52.35437858077959,4.8069677077461925,Gym
444,Osdorp,52.35225,4.80131,Parkrand Apotheek,52.35545435083855,4.797098869041265,Pharmacy
445,Osdorp,52.35225,4.80131,Hammam Shifa,52.350989623095465,4.794842764918363,Spa
446,Osdorp,52.35225,4.80131,Trampoline Baden Powellweg,52.349151611328125,4.79625129699707,Playground
447,De Aker - Nieuw Sloten,52.34398,4.80157,Speeltuin Sloten,52.34170280814588,4.795679272255508,Playground
448,De Aker - Nieuw Sloten,52.34398,4.80157,Café Restaurant Kerkzicht,52.34144684057444,4.7995410803678125,Pub
449,De Aker - Nieuw Sloten,52.34398,4.80157,Tramhalte Oudenaardeplantsoen,52.34575700888542,4.804167722666789,Tram Station
450,De Aker - Nieuw Sloten,52.34398,4.80157,Be Fresh,52.34569216487811,4.807673350382753,Food Truck
451,De Aker - Nieuw Sloten,52.34778,4.78807,Jumbo,52.34966245575485,4.786839699212023,Supermarket
452,De Aker - Nieuw Sloten,52.34778,4.78807,Tuincentrum Osdorp,52.351863913456036,4.790668268279103,Garden Center
453,De Aker - Nieuw Sloten,52.34778,4.78807,Theehuis de Akermolen,52.34601173648387,4.781351305760543,Tea Room
454,De Aker - Nieuw Sloten,52.34778,4.78807,Tramhalte Ecuplein,52.34982081755209,4.788525192511967,Tram Station
455,De Aker - Nieuw Sloten,52.34778,4.78807,Apotheek De Vaart,52.350017745123516,4.785770381328684,Pharmacy
456,De Aker - Nieuw Sloten,52.34778,4.78807,Tramhalte Inaristraat,52.35035968612119,4.783087979023896,Tram Station
457,De Aker - Nieuw Sloten,52.348,4.78792,Jumbo,52.34966245575485,4.786839699212023,Supermarket
458,De Aker - Nieuw Sloten,52.348,4.78792,Tuincentrum Osdorp,52.351863913456036,4.790668268279103,Garden Center
459,De Aker - Nieuw Sloten,52.348,4.78792,Theehuis de Akermolen,52.34601173648387,4.781351305760543,Tea Room
460,De Aker - Nieuw Sloten,52.348,4.78792,Tramhalte Ecuplein,52.34982081755209,4.788525192511967,Tram Station
461,De Aker - Nieuw Sloten,52.348,4.78792,Apotheek De Vaart,52.350017745123516,4.785770381328684,Pharmacy
462,De Aker - Nieuw Sloten,52.348,4.78792,Tramhalte Inaristraat,52.35035968612119,4.783087979023896,Tram Station
463,Geuzenveld - Slotermeer,52.37625,4.77802,Tuinen van West,52.37981224656211,4.778045376424497,Garden
464,Geuzenveld - Slotermeer,52.37625,4.77802,Tuinpark Osdorp,52.375741275414484,4.775500217445168,Garden
465,Geuzenveld - Slotermeer,52.37625,4.77802,Buitenverblijf De Boois,52.37758413,4.7758381,Sculpture Garden
466,Geuzenveld - Slotermeer,52.37625,4.77802,Volkstuin de Eendracht,52.37349616388955,4.779276762134699,Park
467,Osdorp,52.35398,4.78777,Tuincentrum Osdorp,52.351863913456036,4.790668268279103,Garden Center
468,Osdorp,52.35398,4.78777,Supercoop,52.35532059234887,4.78564116798942,Grocery Store
469,Osdorp,52.35398,4.78777,Jumbo,52.34966245575485,4.786839699212023,Supermarket
470,Osdorp,52.35398,4.78777,Verona Gelati,52.3565365,4.7928277,Ice Cream Shop
471,Osdorp,52.35398,4.78777,Dijkgraafplein,52.3553785536078,4.785748046848131,Neighborhood
472,Osdorp,52.35398,4.78777,Primera,52.355973,4.785978,Convenience Store
473,Osdorp,52.35398,4.78777,Lidl,52.356741329515,4.793327698291337,Supermarket
474,Osdorp,52.35398,4.78777,topvis,52.34978443194958,4.7864104876617946,Fish & Chips Shop
475,Osdorp,52.35398,4.78777,Etos,52.34962826802975,4.787399768829346,Drugstore
476,Osdorp,52.35398,4.78777,Bakkerij van Toor - de Aker,52.34959360759057,4.788845324743155,Bakery
477,Geuzenveld - Slotermeer,52.37263,4.81227,Grieks Specialiteitenrestaurant Plato,52.37442111277137,4.812479816065777,Greek Restaurant
478,Geuzenveld - Slotermeer,52.37263,4.81227,Sloterparkbad,52.37052086012731,4.817250517766272,Pool
479,Geuzenveld - Slotermeer,52.37263,4.81227,Tram 13 Geuzenveld - Centraal Station,52.37586832242552,4.814019215202811,Tram Station
480,Geuzenveld - Slotermeer,52.37263,4.81227,Ruige Riet,52.37172264544949,4.812608228515655,Trail
481,Geuzenveld - Slotermeer,52.37263,4.81227,Basic-Fit,52.36985878045366,4.817473623220785,Gym
482,Geuzenveld - Slotermeer,52.37263,4.81227,Tramhalte Burg. v. Leeuwenlaan,52.376494742484674,4.812107216337886,Tram Station
483,Geuzenveld - Slotermeer,52.37263,4.81227,Tram 7 Slotermeer - Azartplein,52.37283508852098,4.818964004516602,Tram Station
484,Geuzenveld - Slotermeer,52.37344,4.81215,Grieks Specialiteitenrestaurant Plato,52.37442111277137,4.812479816065777,Greek Restaurant
485,Geuzenveld - Slotermeer,52.37344,4.81215,Sloterparkbad,52.37052086012731,4.817250517766272,Pool
486,Geuzenveld - Slotermeer,52.37344,4.81215,Tram 13 Geuzenveld - Centraal Station,52.37586832242552,4.814019215202811,Tram Station
487,Geuzenveld - Slotermeer,52.37344,4.81215,Ruige Riet,52.37172264544949,4.812608228515655,Trail
488,Geuzenveld - Slotermeer,52.37344,4.81215,Tramhalte Burg. v. Leeuwenlaan,52.376494742484674,4.812107216337886,Tram Station
489,Geuzenveld - Slotermeer,52.37344,4.81215,Tram 7 Slotermeer - Azartplein,52.37283508852098,4.818964004516602,Tram Station
490,Geuzenveld - Slotermeer,52.37742,4.79661,Hunkar Restaurant,52.37830173256485,4.8010791850075,Turkish Restaurant
491,Geuzenveld - Slotermeer,52.37742,4.79661,Kruidvat,52.378187876666246,4.801579692200979,Drugstore
492,Geuzenveld - Slotermeer,52.37742,4.79661,Tramhalte Lambertus Zijlplein,52.37741682296526,4.803034876159117,Tram Station
493,Geuzenveld - Slotermeer,52.37742,4.79661,Aalbersestraat,52.37609121371561,4.797622454545146,Trail
494,Geuzenveld - Slotermeer,52.37742,4.79661,Park 'de kuil',52.377421413429815,4.7934844397372744,Park
495,Geuzenveld - Slotermeer,52.37742,4.79661,"Lambertus Zijlplein, amsterdam",52.377815,4.801184,Plaza
496,Geuzenveld - Slotermeer,52.37742,4.79661,Versshop Özcan,52.37776379886488,4.801364793097988,Convenience Store
497,Geuzenveld - Slotermeer,52.37742,4.79661,Vomar Geuzenpoort Amsterdam,52.37920434184453,4.800849717730753,Grocery Store
498,De Aker - Nieuw Sloten,52.34248,4.79112,Molen van Sloten,52.34157969249928,4.792270660400391,Monument / Landmark
499,De Aker - Nieuw Sloten,52.34248,4.79112,De Patatza(a)k,52.34146,4.79253,Snack Place
500,De Aker - Nieuw Sloten,52.34248,4.79112,Speeltuin Sloten,52.34170280814588,4.795679272255508,Playground
501,De Aker - Nieuw Sloten,52.34248,4.79112,IJshoeve,52.341324,4.793758,Ice Cream Shop
502,De Aker - Nieuw Sloten,52.34248,4.79112,Restaurant De Halve Maen,52.34122309174193,4.793097466813496,Restaurant
503,De Aker - Nieuw Sloten,52.34248,4.79112,Syriana,52.34191281246877,4.792767540319466,Middle Eastern Restaurant
504,De Aker - Nieuw Sloten,52.34248,4.79112,SBHC Xenios,52.3394501646127,4.795645520588192,Hockey Field
505,De Aker - Nieuw Sloten,52.34248,4.79112,Studio 28,52.338645,4.794454,Comedy Club
506,De Aker - Nieuw Sloten,52.33299,4.80352,Sv Nieuw-Sloten,52.33567708098997,4.80400982016587,Athletics & Sports
507,De Aker - Nieuw Sloten,52.33299,4.80352,Vin Diesel Cafe,52.3311855053197,4.7995443085240215,Café
508,De Aker - Nieuw Sloten,52.33299,4.80352,Wijntje?,52.331278595499704,4.808524642395623,Wine Shop
509,De Aker - Nieuw Sloten,52.33299,4.80352,Amrâth Apart Hotel,52.334087,4.797745,Hotel
510,De Aker - Nieuw Sloten,52.33299,4.80352,Quick 1913,52.336766759429274,4.804806749977274,Baseball Field
511,De Aker - Nieuw Sloten,52.34609,4.80854,Royal Fook Long,52.34503771008483,4.810421442023208,Chinese Restaurant
512,De Aker - Nieuw Sloten,52.34609,4.80854,Laan van Vlaanderen,52.346403236792106,4.815564544275704,Tram Station
513,De Aker - Nieuw Sloten,52.34609,4.80854,Dirk van den Broek,52.34589133748832,4.811603652778558,Grocery Store
514,De Aker - Nieuw Sloten,52.34609,4.80854,Kruidvat,52.34575554249213,4.811165726797465,Drugstore
515,De Aker - Nieuw Sloten,52.34609,4.80854,Albert Heijn,52.345800652064945,4.811065404477762,Supermarket
516,De Aker - Nieuw Sloten,52.34609,4.80854,Eetcafé Match,52.34528390156318,4.809381039168457,Sports Bar
517,De Aker - Nieuw Sloten,52.34609,4.80854,Kasterleepark,52.347507670627856,4.810313460901912,Park
518,De Aker - Nieuw Sloten,52.34609,4.80854,Squashcentrum Match,52.34520713530824,4.809401926579286,Gym / Fitness Center
519,De Aker - Nieuw Sloten,52.34609,4.80854,Bruna,52.34593197903798,4.811123523520474,Paper / Office Supplies Store
520,De Aker - Nieuw Sloten,52.34609,4.80854,Be Fresh,52.34569216487811,4.807673350382753,Food Truck
521,De Aker - Nieuw Sloten,52.34609,4.80854,Gill's Fastfood,52.345301976204745,4.811319065332883,Snack Place
522,De Aker - Nieuw Sloten,52.34609,4.80854,Hulleman brood en banket,52.34529899608376,4.811319442631624,Bakery
523,De Aker - Nieuw Sloten,52.34609,4.80854,Bushalte Hageland,52.345109,4.812582,Bus Stop
524,De Aker - Nieuw Sloten,52.34609,4.80854,Tramhalte Oudenaardeplantsoen,52.34575700888542,4.804167722666789,Tram Station
525,De Aker - Nieuw Sloten,52.34609,4.80854,Bushalte Antwerpenbaan,52.346154252282524,4.81553248648315,Bus Stop
526,Buitenveldert - Zuidas,52.32558,4.81921,Boerderij Meerzicht,52.32639936654246,4.820931645253365,Creperie
527,Buitenveldert - Zuidas,52.32558,4.81921,The Lake Hotel Airport,52.325977,4.817104,Hotel
528,Buitenveldert - Zuidas,52.32558,4.81921,Veerpont Ome Piet,52.325495,4.818407,Boat or Ferry
529,Buitenveldert - Zuidas,52.32558,4.81921,Jachthaven Driessen,52.328149297859866,4.816530725283169,Harbor / Marina
530,Buitenveldert - Zuidas,52.32558,4.81921,E.W. Driessen,52.32819071243072,4.81649563564789,Harbor / Marina
531,Buitenveldert - Zuidas,52.32558,4.81921,Grand Café Restaurant Meerzicht Badhoevedorp,52.326160596203565,4.817457212879363,Diner
532,Buitenveldert - Zuidas,52.32558,4.81921,De Hot-spot,52.32878393713788,4.8167899783938175,Fast Food Restaurant
533,Buitenveldert - Zuidas,52.32558,4.81921,Jachthaven De Boekanier,52.328702702023556,4.816209385962981,Harbor / Marina
534,De Aker - Nieuw Sloten,52.34741,4.78914,Jumbo,52.34966245575485,4.786839699212023,Supermarket
535,De Aker - Nieuw Sloten,52.34741,4.78914,Kaasspecialist Dukaat,52.348364,4.789208,Cheese Shop
536,De Aker - Nieuw Sloten,52.34741,4.78914,Tramhalte Ecuplein,52.34982081755209,4.788525192511967,Tram Station
537,De Aker - Nieuw Sloten,52.34741,4.78914,Lelijk Kunstwerk,52.34634,4.78479,Art Gallery
538,De Aker - Nieuw Sloten,52.34741,4.78914,Apotheek De Vaart,52.350017745123516,4.785770381328684,Pharmacy
539,De Aker - Nieuw Sloten,52.34741,4.78914,Dog Meeting Point De Oude Molen,52.346991462151195,4.783481823494809,Dog Run
540,De Aker - Nieuw Sloten,52.34741,4.78914,B&B Houseboat between Amsterdam Windmills,52.344657875888316,4.7840064171262044,Bed & Breakfast
541,De Aker - Nieuw Sloten,52.34833,4.78987,Jumbo,52.34966245575485,4.786839699212023,Supermarket
542,De Aker - Nieuw Sloten,52.34833,4.78987,Tuincentrum Osdorp,52.351863913456036,4.790668268279103,Garden Center
543,De Aker - Nieuw Sloten,52.34833,4.78987,Basic-Fit,52.350808359785304,4.795230780543993,Gym
544,De Aker - Nieuw Sloten,52.34833,4.78987,Tramhalte Ecuplein,52.34982081755209,4.788525192511967,Tram Station
545,De Aker - Nieuw Sloten,52.34833,4.78987,Apotheek De Vaart,52.350017745123516,4.785770381328684,Pharmacy
546,De Aker - Nieuw Sloten,52.34833,4.78987,Hammam Shifa,52.350989623095465,4.794842764918363,Spa
547,De Aker - Nieuw Sloten,52.34833,4.78987,Osdorpse Posse,52.351081119778165,4.795026872779949,BBQ Joint
548,De Aker - Nieuw Sloten,52.350323,4.816838,Laan van Vlaanderen,52.346403236792106,4.815564544275704,Tram Station
549,De Aker - Nieuw Sloten,52.350323,4.816838,Dirk Vd Broek,52.346364399029675,4.816083722961759,Grocery Store
550,De Aker - Nieuw Sloten,52.350323,4.816838,Bakkerij Oranje,52.34747591194935,4.812093904511027,Bakery
551,De Aker - Nieuw Sloten,52.350323,4.816838,Bushalte Antwerpenbaan,52.34614644,4.81607842,Bus Stop
552,De Aker - Nieuw Sloten,52.350323,4.816838,Bushalte Antwerpenbaan,52.346154252282524,4.81553248648315,Bus Stop
553,De Aker - Nieuw Sloten,52.34879,4.80863,Royal Fook Long,52.34503771008483,4.810421442023208,Chinese Restaurant
554,De Aker - Nieuw Sloten,52.34879,4.80863,Dirk van den Broek,52.34589133748832,4.811603652778558,Grocery Store
555,De Aker - Nieuw Sloten,52.34879,4.80863,Kruidvat,52.34575554249213,4.811165726797465,Drugstore
556,De Aker - Nieuw Sloten,52.34879,4.80863,Albert Heijn,52.345800652064945,4.811065404477762,Supermarket
557,De Aker - Nieuw Sloten,52.34879,4.80863,Kasterleepark,52.347507670627856,4.810313460901912,Park
558,De Aker - Nieuw Sloten,52.34879,4.80863,Tramhalte Kasterleepark,52.34632880441356,4.810481024446929,Tram Station
559,De Aker - Nieuw Sloten,52.34879,4.80863,Amsterdam Flowers,52.346194,4.81106,Flower Shop
560,De Aker - Nieuw Sloten,52.34879,4.80863,Be Fresh,52.34569216487811,4.807673350382753,Food Truck
561,De Aker - Nieuw Sloten,52.34879,4.80863,Gall & Gall,52.345674,4.811227,Liquor Store
562,De Aker - Nieuw Sloten,52.34879,4.80863,Eetcafé Match,52.34528390156318,4.809381039168457,Sports Bar
563,De Aker - Nieuw Sloten,52.34879,4.80863,Squashcentrum Match,52.34520713530824,4.809401926579286,Gym / Fitness Center
564,De Aker - Nieuw Sloten,52.34879,4.80863,Blokker,52.345385,4.811068,Furniture / Home Store
565,De Aker - Nieuw Sloten,52.34879,4.80863,Sportcentrum Match,52.345062900253964,4.809463519536483,Gym
566,De Aker - Nieuw Sloten,52.34879,4.80863,Gill's Fastfood,52.345301976204745,4.811319065332883,Snack Place
567,De Aker - Nieuw Sloten,52.34879,4.80863,Hulleman brood en banket,52.34529899608376,4.811319442631624,Bakery
568,De Aker - Nieuw Sloten,52.34879,4.80863,Tramhalte Oudenaardeplantsoen,52.34575700888542,4.804167722666789,Tram Station
569,De Aker - Nieuw Sloten,52.34879,4.80863,Tuincentrum Ottenhof,52.3508013500869,4.814854860305786,Flower Shop
570,De Aker - Nieuw Sloten,52.34879,4.80863,Bushalte Hageland,52.345109,4.812582,Bus Stop
571,De Aker - Nieuw Sloten,52.34879,4.80863,Amsterdam Flowers,52.350104,4.815625,Flower Shop
572,De Aker - Nieuw Sloten,52.34773,4.80685,Royal Fook Long,52.34503771008483,4.810421442023208,Chinese Restaurant
573,De Aker - Nieuw Sloten,52.34773,4.80685,Dirk van den Broek,52.34589133748832,4.811603652778558,Grocery Store
574,De Aker - Nieuw Sloten,52.34773,4.80685,Kruidvat,52.34575554249213,4.811165726797465,Drugstore
575,De Aker - Nieuw Sloten,52.34773,4.80685,Albert Heijn,52.345800652064945,4.811065404477762,Supermarket
576,De Aker - Nieuw Sloten,52.34773,4.80685,Be Fresh,52.34569216487811,4.807673350382753,Food Truck
577,De Aker - Nieuw Sloten,52.34773,4.80685,Kasterleepark,52.347507670627856,4.810313460901912,Park
578,De Aker - Nieuw Sloten,52.34773,4.80685,Tramhalte Oudenaardeplantsoen,52.34575700888542,4.804167722666789,Tram Station
579,De Aker - Nieuw Sloten,52.34773,4.80685,Eetcafé Match,52.34528390156318,4.809381039168457,Sports Bar
580,De Aker - Nieuw Sloten,52.34773,4.80685,Squashcentrum Match,52.34520713530824,4.809401926579286,Gym / Fitness Center
581,De Aker - Nieuw Sloten,52.34773,4.80685,Bruna,52.34593197903798,4.811123523520474,Paper / Office Supplies Store
582,De Aker - Nieuw Sloten,52.34773,4.80685,Gill's Fastfood,52.345301976204745,4.811319065332883,Snack Place
583,De Aker - Nieuw Sloten,52.34773,4.80685,Hulleman brood en banket,52.34529899608376,4.811319442631624,Bakery
584,De Aker - Nieuw Sloten,52.34773,4.80685,Bushalte Hageland,52.345109,4.812582,Bus Stop
585,Osdorp,52.35778,4.79699,Şerifoğlu Osdorp,52.35729320045701,4.795337960192134,Dessert Shop
586,Osdorp,52.35778,4.79699,Beymen café & restaurant,52.357292590881656,4.795867714028245,Turkish Restaurant
587,Osdorp,52.35778,4.79699,Sahan Restaurant,52.35836579204695,4.8003088795736115,Turkish Restaurant
588,Osdorp,52.35778,4.79699,Ken-Ichi,52.35830225502692,4.800566091948069,Sushi Restaurant
589,Osdorp,52.35778,4.79699,Warung Spang Makandra,52.35714748238426,4.794915899758567,Indonesian Restaurant
590,Osdorp,52.35778,4.79699,Stadspark Osdorp,52.35766499732175,4.798734571913346,Park
591,Osdorp,52.35778,4.79699,Albert Heijn XL,52.35936925871119,4.802355948345206,Supermarket
592,Osdorp,52.35778,4.79699,HEMA,52.3587731,4.8038868,Department Store
593,Osdorp,52.35778,4.79699,Verona Gelati,52.3565365,4.7928277,Ice Cream Shop
594,Osdorp,52.35778,4.79699,Febo,52.358085330954815,4.800173119234341,Snack Place
595,Osdorp,52.35778,4.79699,Coffee Blends,52.358565,4.801622,Coffee Shop
596,Osdorp,52.35778,4.79699,Lidl,52.356741329515,4.793327698291337,Supermarket
597,Osdorp,52.35778,4.79699,ALDI,52.36201356294424,4.79874443971607,Supermarket
598,Osdorp,52.35778,4.79699,Dirk van den Broek,52.358175,4.8027974,Supermarket
599,Osdorp,52.35778,4.79699,Bertram & brood,52.35848,4.800958,Bakery
600,Osdorp,52.35778,4.79699,viswinkel,52.360652,4.798524,Fish Market
601,Osdorp,52.35778,4.79699,Apotheek Caleidoscoop,52.3595772,4.8028825,Pharmacy
602,Osdorp,52.35778,4.79699,La Galleria,52.36177680020687,4.798194624722385,Italian Restaurant
603,Osdorp,52.35778,4.79699,Tramhalte Osdorpplein,52.35939076805102,4.803125747271212,Tram Station
604,De Aker - Nieuw Sloten,52.3494,4.81515,Laan van Vlaanderen,52.346403236792106,4.815564544275704,Tram Station
605,De Aker - Nieuw Sloten,52.3494,4.81515,Dirk van den Broek,52.34589133748832,4.811603652778558,Grocery Store
606,De Aker - Nieuw Sloten,52.3494,4.81515,Kruidvat,52.34575554249213,4.811165726797465,Drugstore
607,De Aker - Nieuw Sloten,52.3494,4.81515,Albert Heijn,52.345800652064945,4.811065404477762,Supermarket
608,De Aker - Nieuw Sloten,52.3494,4.81515,Amsterdam Flowers,52.350104,4.815625,Flower Shop
609,De Aker - Nieuw Sloten,52.3494,4.81515,Tuincentrum Ottenhof,52.3508013500869,4.814854860305786,Flower Shop
610,De Aker - Nieuw Sloten,52.3494,4.81515,Deutz Fysiotherapie,52.350803464459,4.818773801803291,Gym / Fitness Center
611,De Aker - Nieuw Sloten,52.3494,4.81515,Bushalte Antwerpenbaan,52.346154252282524,4.81553248648315,Bus Stop
612,De Aker - Nieuw Sloten,52.3494,4.81515,Bushalte Antwerpenbaan,52.34614644,4.81607842,Bus Stop
613,De Aker - Nieuw Sloten,52.3494,4.81515,Kasterleepark,52.347507670627856,4.810313460901912,Park
614,De Aker - Nieuw Sloten,52.3494,4.81515,Amsterdam Flowers,52.346194,4.81106,Flower Shop
615,De Aker - Nieuw Sloten,52.3494,4.81515,Tramhalte Kasterleepark,52.34632880441356,4.810481024446929,Tram Station
616,De Aker - Nieuw Sloten,52.3494,4.81515,Gall & Gall,52.345674,4.811227,Liquor Store
617,Geuzenveld - Slotermeer,52.37918,4.79243,Nederlandse Rugby BondRugby,52.37851423456072,4.786220975992434,Stadium
618,Geuzenveld - Slotermeer,52.37918,4.79243,Sportpark De Eendracht,52.37919301160806,4.785431704292112,Soccer Field
619,Geuzenveld - Slotermeer,52.37918,4.79243,AAC Rugby,52.37790595962388,4.78623238934527,Athletics & Sports
620,Geuzenveld - Slotermeer,52.37918,4.79243,Park 'de kuil',52.377421413429815,4.7934844397372744,Park
621,Geuzenveld - Slotermeer,52.37918,4.79243,Lidl Geuzenveld,52.382137377855386,4.7977700352959145,Supermarket
622,Geuzenveld - Slotermeer,52.37918,4.79243,Bushalte J.M. den Uylstraat,52.382404330177195,4.790979995807614,Bus Stop
623,Geuzenveld - Slotermeer,52.37918,4.79243,Snackbar De Smulhoek,52.38241224984885,4.7909625749188,Snack Place
624,Geuzenveld - Slotermeer,52.37918,4.79243,Sparks United,52.37925,4.786335,Rugby Pitch
625,Geuzenveld - Slotermeer,52.37918,4.79243,Aalbersestraat,52.37609121371561,4.797622454545146,Trail
626,Osdorp,52.35355,4.8088,Toko Bandung,52.354357760869604,4.810843080812593,Indonesian Restaurant
627,Osdorp,52.35355,4.8088,Enfes,52.354056719419354,4.810545403296009,Turkish Restaurant
628,Osdorp,52.35355,4.8088,Sportcentrum Caland,52.354371026172096,4.807131832054338,Gym / Fitness Center
629,Osdorp,52.35355,4.8088,Calandfit,52.35437858077959,4.8069677077461925,Gym
630,De Aker - Nieuw Sloten,52.34216,4.80948,Royal Fook Long,52.34503771008483,4.810421442023208,Chinese Restaurant
631,De Aker - Nieuw Sloten,52.34216,4.80948,Velodrome Sloten,52.33967793516416,4.807933258202772,Racetrack
632,De Aker - Nieuw Sloten,52.34216,4.80948,Dirk van den Broek,52.34589133748832,4.811603652778558,Grocery Store
633,De Aker - Nieuw Sloten,52.34216,4.80948,Kruidvat,52.34575554249213,4.811165726797465,Drugstore
634,De Aker - Nieuw Sloten,52.34216,4.80948,Albert Heijn,52.345800652064945,4.811065404477762,Supermarket
635,De Aker - Nieuw Sloten,52.34216,4.80948,Robic Wielerlab,52.339841,4.808852,Athletics & Sports
636,De Aker - Nieuw Sloten,52.34216,4.80948,Squashcentrum Match,52.34520713530824,4.809401926579286,Gym / Fitness Center
637,De Aker - Nieuw Sloten,52.34216,4.80948,Eetcafé Match,52.34528390156318,4.809381039168457,Sports Bar
638,De Aker - Nieuw Sloten,52.34216,4.80948,Gill's Fastfood,52.345301976204745,4.811319065332883,Snack Place
639,De Aker - Nieuw Sloten,52.34216,4.80948,Hulleman brood en banket,52.34529899608376,4.811319442631624,Bakery
640,De Aker - Nieuw Sloten,52.34216,4.80948,Golfbaan Sloten,52.33932852745056,4.806550741195679,Golf Course
641,De Aker - Nieuw Sloten,52.34216,4.80948,Bushalte Hageland,52.345109,4.812582,Bus Stop
642,De Aker - Nieuw Sloten,52.34216,4.80948,Be Fresh,52.34569216487811,4.807673350382753,Food Truck
643,De Aker - Nieuw Sloten,52.34216,4.80948,Bruna,52.34593197903798,4.811123523520474,Paper / Office Supplies Store
644,De Aker - Nieuw Sloten,52.34216,4.80948,Tuinpark Lissabon,52.33972292031141,4.814692413045433,Garden
645,Osdorp,52.35488,4.81113,Toko Bandung,52.354357760869604,4.810843080812593,Indonesian Restaurant
646,Osdorp,52.35488,4.81113,Enfes,52.354056719419354,4.810545403296009,Turkish Restaurant
647,Osdorp,52.35488,4.81113,Sportcentrum Caland,52.354371026172096,4.807131832054338,Gym / Fitness Center
648,Osdorp,52.35488,4.81113,Winkelcentrum Osdorpplein,52.35823569564807,4.806964074233381,Shopping Mall
649,Osdorp,52.35488,4.81113,Calandfit,52.35437858077959,4.8069677077461925,Gym
650,Osdorp,52.35488,4.81113,Haven Sloterplas Osdorp,52.35677724652088,4.8143988834723555,Harbor / Marina
651,Osdorp,52.35488,4.81113,Shoperade,52.35824584124092,4.806903691249871,Shopping Mall
652,Osdorp,52.35488,4.81113,Bushalte Piet Wiedijkstraat,52.357353368472204,4.815042917655123,Bus Stop
653,Osdorp,52.35538,4.79624,Şerifoğlu Osdorp,52.35729320045701,4.795337960192134,Dessert Shop
654,Osdorp,52.35538,4.79624,Beymen café & restaurant,52.357292590881656,4.795867714028245,Turkish Restaurant
655,Osdorp,52.35538,4.79624,Warung Spang Makandra,52.35714748238426,4.794915899758567,Indonesian Restaurant
656,Osdorp,52.35538,4.79624,KEYF CAFE,52.351396397205285,4.7965994662101865,Café
657,Osdorp,52.35538,4.79624,Sahan Restaurant,52.35836579204695,4.8003088795736115,Turkish Restaurant
658,Osdorp,52.35538,4.79624,Stadspark Osdorp,52.35766499732175,4.798734571913346,Park
659,Osdorp,52.35538,4.79624,Ken-Ichi,52.35830225502692,4.800566091948069,Sushi Restaurant
660,Osdorp,52.35538,4.79624,Verona Gelati,52.3565365,4.7928277,Ice Cream Shop
661,Osdorp,52.35538,4.79624,Albert Heijn,52.35215769141597,4.79949761513138,Supermarket
662,Osdorp,52.35538,4.79624,Lidl,52.356741329515,4.793327698291337,Supermarket
663,Osdorp,52.35538,4.79624,Febo,52.358085330954815,4.800173119234341,Snack Place
664,Osdorp,52.35538,4.79624,Leziz Restaurant,52.35169859048194,4.798447103054376,Mediterranean Restaurant
665,Osdorp,52.35538,4.79624,Cafetaria Eethuis Family,52.35177995961844,4.798943774435929,Snack Place
666,Osdorp,52.35538,4.79624,Bertram & brood,52.35848,4.800958,Bakery
667,Osdorp,52.35538,4.79624,Taco Mundo,52.35223974660736,4.80127661273474,Mexican Restaurant
668,Osdorp,52.35353,4.79452,KEYF CAFE,52.351396397205285,4.7965994662101865,Café
669,Osdorp,52.35353,4.79452,Tuincentrum Osdorp,52.351863913456036,4.790668268279103,Garden Center
670,Osdorp,52.35353,4.79452,Basic-Fit,52.350808359785304,4.795230780543993,Gym
671,Osdorp,52.35353,4.79452,Şerifoğlu Osdorp,52.35729320045701,4.795337960192134,Dessert Shop
672,Osdorp,52.35353,4.79452,Beymen café & restaurant,52.357292590881656,4.795867714028245,Turkish Restaurant
673,Osdorp,52.35353,4.79452,Warung Spang Makandra,52.35714748238426,4.794915899758567,Indonesian Restaurant
674,Osdorp,52.35353,4.79452,Albert Heijn,52.35215769141597,4.79949761513138,Supermarket
675,Osdorp,52.35353,4.79452,Verona Gelati,52.3565365,4.7928277,Ice Cream Shop
676,Osdorp,52.35353,4.79452,Leziz Restaurant,52.35169859048194,4.798447103054376,Mediterranean Restaurant
677,Osdorp,52.35353,4.79452,Lidl,52.356741329515,4.793327698291337,Supermarket
678,Osdorp,52.35353,4.79452,Cafetaria Eethuis Family,52.35177995961844,4.798943774435929,Snack Place
679,Osdorp,52.35353,4.79452,Taco Mundo,52.35223974660736,4.80127661273474,Mexican Restaurant
680,De Aker - Nieuw Sloten,52.34392,4.79236,Molen van Sloten,52.34157969249928,4.792270660400391,Monument / Landmark
681,De Aker - Nieuw Sloten,52.34392,4.79236,De Patatza(a)k,52.34146,4.79253,Snack Place
682,De Aker - Nieuw Sloten,52.34392,4.79236,Speeltuin Sloten,52.34170280814588,4.795679272255508,Playground
683,De Aker - Nieuw Sloten,52.34392,4.79236,IJshoeve,52.341324,4.793758,Ice Cream Shop
684,De Aker - Nieuw Sloten,52.34392,4.79236,Syriana,52.34191281246877,4.792767540319466,Middle Eastern Restaurant
685,De Aker - Nieuw Sloten,52.34392,4.79236,Restaurant De Halve Maen,52.34122309174193,4.793097466813496,Restaurant
686,Geuzenveld - Slotermeer,52.38132,4.80623,Hunkar Restaurant,52.37830173256485,4.8010791850075,Turkish Restaurant
687,Geuzenveld - Slotermeer,52.38132,4.80623,Toko Makasar,52.379226000351665,4.8033762790789005,Grocery Store
688,Geuzenveld - Slotermeer,52.38132,4.80623,ikea haarlem,52.38306371240049,4.809012392897289,Furniture / Home Store
689,Geuzenveld - Slotermeer,52.38132,4.80623,Kruidvat,52.378187876666246,4.801579692200979,Drugstore
690,Geuzenveld - Slotermeer,52.38132,4.80623,Tramhalte Lambertus Zijlplein,52.37741682296526,4.803034876159117,Tram Station
691,Geuzenveld - Slotermeer,52.38132,4.80623,Eendrachtspark,52.3819484066788,4.80812578163485,Park
692,Geuzenveld - Slotermeer,52.38132,4.80623,Bushalte Dr.H.Colijnstraat,52.38244437441093,4.805592107720451,Bus Stop
693,Geuzenveld - Slotermeer,52.38132,4.80623,Snackbar de Noodstop,52.3825459630324,4.806138298113712,Snack Place
694,Geuzenveld - Slotermeer,52.38132,4.80623,Bushalte J. Cabeliaustraat,52.38229427942488,4.803581128927527,Bus Stop
695,Geuzenveld - Slotermeer,52.38132,4.80623,Mamma Rosa,52.38230630165417,4.802802939092752,Italian Restaurant
696,Geuzenveld - Slotermeer,52.38132,4.80623,EMRE Supermarkt,52.37929273349481,4.8039043826549115,Market
697,Geuzenveld - Slotermeer,52.38132,4.80623,Bakkerij Kara Firi,52.37932243319106,4.803771960221992,Bakery
698,Geuzenveld - Slotermeer,52.38132,4.80623,Vomar Geuzenpoort Amsterdam,52.37920434184453,4.800849717730753,Grocery Store
699,Geuzenveld - Slotermeer,52.38132,4.80623,Tramhalte Colijnstraat,52.37695,4.806191325187683,Tram Station
700,Osdorp,52.35412,4.81285,Toko Bandung,52.354357760869604,4.810843080812593,Indonesian Restaurant
701,Osdorp,52.35412,4.81285,Enfes,52.354056719419354,4.810545403296009,Turkish Restaurant
702,Osdorp,52.35412,4.81285,Sportcentrum Caland,52.354371026172096,4.807131832054338,Gym / Fitness Center
703,Osdorp,52.35412,4.81285,Bushalte Piet Wiedijkstraat,52.357353368472204,4.815042917655123,Bus Stop
704,Osdorp,52.35412,4.81285,Calandfit,52.35437858077959,4.8069677077461925,Gym
705,De Aker - Nieuw Sloten,52.35178,4.7862,Jumbo,52.34966245575485,4.786839699212023,Supermarket
706,De Aker - Nieuw Sloten,52.35178,4.7862,Tuincentrum Osdorp,52.351863913456036,4.790668268279103,Garden Center
707,De Aker - Nieuw Sloten,52.35178,4.7862,Supercoop,52.35532059234887,4.78564116798942,Grocery Store
708,De Aker - Nieuw Sloten,52.35178,4.7862,Apotheek De Vaart,52.350017745123516,4.785770381328684,Pharmacy
709,De Aker - Nieuw Sloten,52.35178,4.7862,topvis,52.34978443194958,4.7864104876617946,Fish & Chips Shop
710,De Aker - Nieuw Sloten,52.35178,4.7862,Etos,52.34962826802975,4.787399768829346,Drugstore
711,De Aker - Nieuw Sloten,52.35178,4.7862,Snackbar Julias,52.349462,4.785834,Snack Place
712,De Aker - Nieuw Sloten,52.35178,4.7862,Tramhalte Inaristraat,52.35035968612119,4.783087979023896,Tram Station
713,De Aker - Nieuw Sloten,52.35178,4.7862,Tramhalte Ecuplein,52.34982081755209,4.788525192511967,Tram Station
714,De Aker - Nieuw Sloten,52.35178,4.7862,Bakkerij van Toor - de Aker,52.34959360759057,4.788845324743155,Bakery
715,De Aker - Nieuw Sloten,52.35178,4.7862,Dijkgraafplein,52.3553785536078,4.785748046848131,Neighborhood
716,De Aker - Nieuw Sloten,52.35178,4.7862,Vishandel Schilder,52.348359,4.789036,Fish Market
717,De Aker - Nieuw Sloten,52.35178,4.7862,Restaurant Pizzeria il Paradiso,52.35112549620568,4.779937581826617,Pizza Place
718,De Aker - Nieuw Sloten,52.35178,4.7862,De Kaas Specialist,52.34834,4.789209,Cheese Shop
719,De Aker - Nieuw Sloten,52.35178,4.7862,Primera,52.355973,4.785978,Convenience Store
720,Osdorp,52.35427,4.7986,KEYF CAFE,52.351396397205285,4.7965994662101865,Café
721,Osdorp,52.35427,4.7986,Şerifoğlu Osdorp,52.35729320045701,4.795337960192134,Dessert Shop
722,Osdorp,52.35427,4.7986,Beymen café & restaurant,52.357292590881656,4.795867714028245,Turkish Restaurant
723,Osdorp,52.35427,4.7986,Sahan Restaurant,52.35836579204695,4.8003088795736115,Turkish Restaurant
724,Osdorp,52.35427,4.7986,Basic-Fit,52.350808359785304,4.795230780543993,Gym
725,Osdorp,52.35427,4.7986,Ken-Ichi,52.35830225502692,4.800566091948069,Sushi Restaurant
726,Osdorp,52.35427,4.7986,Stadspark Osdorp,52.35766499732175,4.798734571913346,Park
727,Osdorp,52.35427,4.7986,Warung Spang Makandra,52.35714748238426,4.794915899758567,Indonesian Restaurant
728,Osdorp,52.35427,4.7986,Albert Heijn,52.35215769141597,4.79949761513138,Supermarket
729,Osdorp,52.35427,4.7986,Verona Gelati,52.3565365,4.7928277,Ice Cream Shop
730,Osdorp,52.35427,4.7986,Leziz Restaurant,52.35169859048194,4.798447103054376,Mediterranean Restaurant
731,Osdorp,52.35427,4.7986,Febo,52.358085330954815,4.800173119234341,Snack Place
732,Osdorp,52.35427,4.7986,Cafetaria Eethuis Family,52.35177995961844,4.798943774435929,Snack Place
733,Osdorp,52.35427,4.7986,Taco Mundo,52.35223974660736,4.80127661273474,Mexican Restaurant
734,Osdorp,52.35427,4.7986,Lidl,52.356741329515,4.793327698291337,Supermarket
735,Osdorp,52.35427,4.7986,Tramhalte Hoekenes,52.35246887593561,4.802484995485996,Tram Station
736,Osdorp,52.35427,4.7986,Bertram & brood,52.35848,4.800958,Bakery
737,Osdorp,52.35427,4.7986,Picknick Spot Don & Josien,52.349858147355626,4.7998118421661085,Park
738,Osdorp,52.35625,4.75724,Bij Qunis,52.35342004314931,4.761323224334269,Restaurant
739,Osdorp,52.35625,4.75724,ADG Stables Nederland,52.35337191705757,4.755070492032935,Farm
740,Osdorp,52.35625,4.75724,Gemaal De Lynden,52.35314086770985,4.761017560958862,Monument / Landmark
741,Osdorp,52.35625,4.75724,Tol BV Hovenier en terreininrichter vd,52.3572006,4.76437,Construction & Landscaping
742,Osdorp,52.35873,4.79776,Sahan Restaurant,52.35836579204695,4.8003088795736115,Turkish Restaurant
743,Osdorp,52.35873,4.79776,Şerifoğlu Osdorp,52.35729320045701,4.795337960192134,Dessert Shop
744,Osdorp,52.35873,4.79776,Beymen café & restaurant,52.357292590881656,4.795867714028245,Turkish Restaurant
745,Osdorp,52.35873,4.79776,Ken-Ichi,52.35830225502692,4.800566091948069,Sushi Restaurant
746,Osdorp,52.35873,4.79776,Stadspark Osdorp,52.35766499732175,4.798734571913346,Park
747,Osdorp,52.35873,4.79776,Warung Spang Makandra,52.35714748238426,4.794915899758567,Indonesian Restaurant
748,Osdorp,52.35873,4.79776,Albert Heijn XL,52.35936925871119,4.802355948345206,Supermarket
749,Osdorp,52.35873,4.79776,TK Maxx,52.35892191615011,4.805054979652113,Clothing Store
750,Osdorp,52.35873,4.79776,Citiez,52.35927163044513,4.804102132629927,Hotel
751,Osdorp,52.35873,4.79776,HEMA,52.3587731,4.8038868,Department Store
752,Osdorp,52.35873,4.79776,New West Inn,52.36252051272109,4.794774637647998,Hotel
753,Osdorp,52.35873,4.79776,Action,52.35880230135715,4.8047312727487155,Discount Store
754,Osdorp,52.35873,4.79776,Verona Gelati,52.3565365,4.7928277,Ice Cream Shop
755,Osdorp,52.35873,4.79776,Febo,52.358085330954815,4.800173119234341,Snack Place
756,Osdorp,52.35873,4.79776,Coffee Blends,52.358565,4.801622,Coffee Shop
757,Osdorp,52.35873,4.79776,Brasserie De Serre,52.358757,4.8049736,Dutch Restaurant
758,Osdorp,52.35873,4.79776,ALDI,52.36201356294424,4.79874443971607,Supermarket
759,Osdorp,52.35873,4.79776,Dirk van den Broek,52.358175,4.8027974,Supermarket
760,Osdorp,52.35873,4.79776,Bertram & brood,52.35848,4.800958,Bakery
761,Osdorp,52.35873,4.79776,viswinkel,52.360652,4.798524,Fish Market
762,Osdorp,52.35873,4.79776,buongiorno,52.35719153927261,4.795083989767674,Café
763,Osdorp,52.35873,4.79776,Lidl,52.356741329515,4.793327698291337,Supermarket
764,Osdorp,52.35873,4.79776,La Galleria,52.36177680020687,4.798194624722385,Italian Restaurant
765,Osdorp,52.35873,4.79776,Apotheek Caleidoscoop,52.3595772,4.8028825,Pharmacy
766,Osdorp,52.35873,4.79776,Parkrand Apotheek,52.35545435083855,4.797098869041265,Pharmacy
767,Osdorp,52.35873,4.79776,Tramhalte Osdorpplein,52.35939076805102,4.803125747271212,Tram Station
768,Osdorp,52.35873,4.79776,bakkerij kara firin osdorper ban,52.362237,4.799815,Bakery
769,Osdorp,52.35873,4.79776,Steakhouse/Pizzeria Osdorp,52.356567,4.792526,Steakhouse
770,Osdorp,52.35873,4.79776,Restaurant City West Remco,52.36232668094656,4.794975050066911,Breakfast Spot
771,Osdorp,52.35873,4.79776,Vivant Geestman,52.35659568338567,4.792218130802646,Smoke Shop
772,Osdorp,52.35873,4.79776,Natuurwinkel Osdorp,52.358616,4.804485,Herbs & Spices Store
773,Osdorp,52.35873,4.79776,Snackbar van Vliet,52.36239063817457,4.801161613917256,Snack Place
774,Osdorp,52.35873,4.79776,Cesme Lunchroom & Patisserie,52.36243,4.8010883,Bakery
775,De Aker - Nieuw Sloten,52.342,4.80547,Velodrome Sloten,52.33967793516416,4.807933258202772,Racetrack
776,De Aker - Nieuw Sloten,52.342,4.80547,Royal Fook Long,52.34503771008483,4.810421442023208,Chinese Restaurant
777,De Aker - Nieuw Sloten,52.342,4.80547,Café Restaurant Kerkzicht,52.34144684057444,4.7995410803678125,Pub
778,De Aker - Nieuw Sloten,52.342,4.80547,Golfbaan Sloten,52.33932852745056,4.806550741195679,Golf Course
779,De Aker - Nieuw Sloten,52.342,4.80547,Robic Wielerlab,52.339841,4.808852,Athletics & Sports
780,De Aker - Nieuw Sloten,52.342,4.80547,Xenios Veld 4,52.338936,4.8042545,Hockey Field
781,De Aker - Nieuw Sloten,52.342,4.80547,Tramhalte Oudenaardeplantsoen,52.34575700888542,4.804167722666789,Tram Station
782,De Aker - Nieuw Sloten,52.342,4.80547,Be Fresh,52.34569216487811,4.807673350382753,Food Truck
783,De Aker - Nieuw Sloten,52.342,4.80547,Squashcentrum Match,52.34520713530824,4.809401926579286,Gym / Fitness Center
784,De Aker - Nieuw Sloten,52.342,4.80547,Eetcafé Match,52.34528390156318,4.809381039168457,Sports Bar
785,Osdorp,52.362003,4.797712,Sahan Restaurant,52.35836579204695,4.8003088795736115,Turkish Restaurant
786,Osdorp,52.362003,4.797712,Ken-Ichi,52.35830225502692,4.800566091948069,Sushi Restaurant
787,Osdorp,52.362003,4.797712,New West Inn,52.36252051272109,4.794774637647998,Hotel
788,Osdorp,52.362003,4.797712,Albert Heijn XL,52.35936925871119,4.802355948345206,Supermarket
789,Osdorp,52.362003,4.797712,Stadspark Osdorp,52.35766499732175,4.798734571913346,Park
790,Osdorp,52.362003,4.797712,ALDI,52.36201356294424,4.79874443971607,Supermarket
791,Osdorp,52.362003,4.797712,La Galleria,52.36177680020687,4.798194624722385,Italian Restaurant
792,Osdorp,52.362003,4.797712,Coffee Blends,52.358565,4.801622,Coffee Shop
793,Osdorp,52.362003,4.797712,Cesme Lunchroom & Patisserie,52.36243,4.8010883,Bakery
794,Osdorp,52.362003,4.797712,Snackbar van Vliet,52.36239063817457,4.801161613917256,Snack Place
795,Osdorp,52.362003,4.797712,Febo,52.358085330954815,4.800173119234341,Snack Place
796,Osdorp,52.362003,4.797712,Apotheek Caleidoscoop,52.3595772,4.8028825,Pharmacy
797,Osdorp,52.362003,4.797712,Bertram & brood,52.35848,4.800958,Bakery
798,Osdorp,52.362003,4.797712,Tramhalte Osdorpplein,52.35939076805102,4.803125747271212,Tram Station
799,Geuzenveld - Slotermeer,52.38244092515074,4.7834869851806605,Room Escape Amsterdam,52.38208624429266,4.786096215248107,General Entertainment
800,Geuzenveld - Slotermeer,52.38244092515074,4.7834869851806605,Het Rijk van de Keizer,52.38335,4.7798354,Event Space
801,Geuzenveld - Slotermeer,52.38244092515074,4.7834869851806605,Tuinen van West,52.37981224656211,4.778045376424497,Garden
802,Geuzenveld - Slotermeer,52.38244092515074,4.7834869851806605,Nederlandse Rugby BondRugby,52.37851423456072,4.786220975992434,Stadium
803,Geuzenveld - Slotermeer,52.38244092515074,4.7834869851806605,Sportpark De Eendracht,52.37919301160806,4.785431704292112,Soccer Field
804,Geuzenveld - Slotermeer,52.38244092515074,4.7834869851806605,Padel Amsterdam,52.382276,4.78534,Athletics & Sports
805,Geuzenveld - Slotermeer,52.38244092515074,4.7834869851806605,Aristos kantine,52.382248,4.785206,Baseball Field
806,Geuzenveld - Slotermeer,52.38244092515074,4.7834869851806605,Cantina,52.38332261354154,4.779778723822914,Cafeteria
807,Geuzenveld - Slotermeer,52.38244092515074,4.7834869851806605,S.C. Eendracht'82,52.37935191812319,4.783890009713767,Soccer Field
808,Geuzenveld - Slotermeer,52.38244092515074,4.7834869851806605,Sparks United,52.37925,4.786335,Rugby Pitch
809,Geuzenveld - Slotermeer,52.38244092515074,4.7834869851806605,The Unbound,52.38159,4.777037,Hotel
810,Osdorp,52.35831,4.80335,KING Kumpir Osdorp,52.35908369,4.805177,Vegetarian / Vegan Restaurant
811,Osdorp,52.35831,4.80335,Sahan Restaurant,52.35836579204695,4.8003088795736115,Turkish Restaurant
812,Osdorp,52.35831,4.80335,TK Maxx,52.35892191615011,4.805054979652113,Clothing Store
813,Osdorp,52.35831,4.80335,Ken-Ichi,52.35830225502692,4.800566091948069,Sushi Restaurant
814,Osdorp,52.35831,4.80335,De Meervaart,52.358970325125746,4.807310964256825,Theater
815,Osdorp,52.35831,4.80335,Albert Heijn XL,52.35936925871119,4.802355948345206,Supermarket
816,Osdorp,52.35831,4.80335,Citiez,52.35927163044513,4.804102132629927,Hotel
817,Osdorp,52.35831,4.80335,Stadspark Osdorp,52.35766499732175,4.798734571913346,Park
818,Osdorp,52.35831,4.80335,HEMA,52.3587731,4.8038868,Department Store
819,Osdorp,52.35831,4.80335,Action,52.35880230135715,4.8047312727487155,Discount Store
820,Osdorp,52.35831,4.80335,Meram Osdorp,52.360281793025734,4.808239144212434,Turkish Restaurant
821,Osdorp,52.35831,4.80335,Brasserie De Serre,52.358757,4.8049736,Dutch Restaurant
822,Osdorp,52.35831,4.80335,H&M,52.35960324857142,4.805846415805486,Clothing Store
823,Osdorp,52.35831,4.80335,Kruidvat,52.35938917446104,4.806192284873515,Drugstore
824,Osdorp,52.35831,4.80335,Winkelcentrum Osdorpplein,52.35823569564807,4.806964074233381,Shopping Mall
825,Osdorp,52.35831,4.80335,Coffee Blends,52.358565,4.801622,Coffee Shop
826,Osdorp,52.35831,4.80335,McDonald's,52.35964549069796,4.805411982803321,Fast Food Restaurant
827,Osdorp,52.35831,4.80335,Kruidvat,52.35969528623045,4.806451531046506,Drugstore
828,Osdorp,52.35831,4.80335,Febo,52.358085330954815,4.800173119234341,Snack Place
829,Osdorp,52.35831,4.80335,Dirk van den Broek,52.358175,4.8027974,Supermarket
830,Osdorp,52.35831,4.80335,Shoperade,52.35824584124092,4.806903691249871,Shopping Mall
831,Osdorp,52.35831,4.80335,Natuurwinkel Osdorp,52.358616,4.804485,Herbs & Spices Store
832,Osdorp,52.35831,4.80335,Lingerieland Osdorp,52.359442209635894,4.8045207781933845,Lingerie Store
833,Osdorp,52.35831,4.80335,Alsham Delights,52.3586,4.801056,Dessert Shop
834,Osdorp,52.35831,4.80335,We,52.35933165,4.80440708,Women's Store
835,Osdorp,52.35831,4.80335,Blokker,52.35965847993876,4.8062657329765734,Furniture / Home Store
836,Osdorp,52.35831,4.80335,Sport City,52.359851355177625,4.807000552823147,Gym
837,Osdorp,52.35831,4.80335,Tramhalte Ruimzicht,52.35967378023241,4.807474417473887,Tram Station
838,Osdorp,52.35831,4.80335,Bushalte Ruimzicht,52.35973023317051,4.807527328319064,Bus Stop
839,Osdorp,52.35831,4.80335,Holland & Barrett,52.35970342110627,4.808713987781494,Pharmacy
840,Osdorp,52.35831,4.80335,Talentenhuis,52.36165076268419,4.8060393591709865,Theater
841,Osdorp,52.35831,4.80335,viswinkel,52.360652,4.798524,Fish Market
842,Osdorp,52.35831,4.80335,Snackbar van Vliet,52.36239063817457,4.801161613917256,Snack Place
843,Osdorp,52.35831,4.80335,Cesme Lunchroom & Patisserie,52.36243,4.8010883,Bakery
844,Osdorp,52.35831,4.80335,bakkerij kara firin osdorper ban,52.362237,4.799815,Bakery
845,Osdorp,52.35831,4.80335,Grand Café Sloterplas,52.36017104297609,4.807885298795483,Café
846,Osdorp,52.36023,4.80476,KING Kumpir Osdorp,52.35908369,4.805177,Vegetarian / Vegan Restaurant
847,Osdorp,52.36023,4.80476,TK Maxx,52.35892191615011,4.805054979652113,Clothing Store
848,Osdorp,52.36023,4.80476,De Meervaart,52.358970325125746,4.807310964256825,Theater
849,Osdorp,52.36023,4.80476,Sahan Restaurant,52.35836579204695,4.8003088795736115,Turkish Restaurant
850,Osdorp,52.36023,4.80476,Albert Heijn XL,52.35936925871119,4.802355948345206,Supermarket
851,Osdorp,52.36023,4.80476,Ken-Ichi,52.35830225502692,4.800566091948069,Sushi Restaurant
852,Osdorp,52.36023,4.80476,Citiez,52.35927163044513,4.804102132629927,Hotel
853,Osdorp,52.36023,4.80476,Meram Osdorp,52.360281793025734,4.808239144212434,Turkish Restaurant
854,Osdorp,52.36023,4.80476,HEMA,52.3587731,4.8038868,Department Store
855,Osdorp,52.36023,4.80476,Action,52.35880230135715,4.8047312727487155,Discount Store
856,Osdorp,52.36023,4.80476,Stadspark Osdorp,52.35766499732175,4.798734571913346,Park
857,Osdorp,52.36023,4.80476,Brasserie De Serre,52.358757,4.8049736,Dutch Restaurant
858,Osdorp,52.36023,4.80476,Kruidvat,52.35938917446104,4.806192284873515,Drugstore
859,Osdorp,52.36023,4.80476,H&M,52.35960324857142,4.805846415805486,Clothing Store
860,Osdorp,52.36023,4.80476,Winkelcentrum Osdorpplein,52.35823569564807,4.806964074233381,Shopping Mall
861,Osdorp,52.36023,4.80476,Kruidvat,52.35969528623045,4.806451531046506,Drugstore
862,Osdorp,52.36023,4.80476,McDonald's,52.35964549069796,4.805411982803321,Fast Food Restaurant
863,Osdorp,52.36023,4.80476,Coffee Blends,52.358565,4.801622,Coffee Shop
864,Osdorp,52.36023,4.80476,Dirk van den Broek,52.358175,4.8027974,Supermarket
865,Osdorp,52.36023,4.80476,Shoperade,52.35824584124092,4.806903691249871,Shopping Mall
866,Osdorp,52.36023,4.80476,ALDI,52.36201356294424,4.79874443971607,Supermarket
867,Osdorp,52.36023,4.80476,Febo,52.358085330954815,4.800173119234341,Snack Place
868,Osdorp,52.36023,4.80476,Natuurwinkel Osdorp,52.358616,4.804485,Herbs & Spices Store
869,Osdorp,52.36023,4.80476,Sport City,52.359851355177625,4.807000552823147,Gym
870,Osdorp,52.36023,4.80476,Bushalte Ruimzicht,52.35973023317051,4.807527328319064,Bus Stop
871,Osdorp,52.36023,4.80476,Tramhalte Ruimzicht,52.35967378023241,4.807474417473887,Tram Station
872,Osdorp,52.36023,4.80476,Apotheek Caleidoscoop,52.3595772,4.8028825,Pharmacy
873,Osdorp,52.36023,4.80476,Blokker,52.35965847993876,4.8062657329765734,Furniture / Home Store
874,Osdorp,52.36023,4.80476,Talentenhuis,52.36165076268419,4.8060393591709865,Theater
875,Osdorp,52.36023,4.80476,Tramhalte Osdorpplein,52.35939076805102,4.803125747271212,Tram Station
876,Osdorp,52.36023,4.80476,IJscuypje,52.359302,4.806063,Ice Cream Shop
877,Osdorp,52.36023,4.80476,Holland & Barrett,52.35970342110627,4.808713987781494,Pharmacy
878,Osdorp,52.36023,4.80476,Bertram & brood,52.35848,4.800958,Bakery
879,Osdorp,52.36023,4.80476,Snackbar van Vliet,52.36239063817457,4.801161613917256,Snack Place
880,Osdorp,52.36023,4.80476,Cesme Lunchroom & Patisserie,52.36243,4.8010883,Bakery
881,Osdorp,52.36023,4.80476,Grand Café Sloterplas,52.36017104297609,4.807885298795483,Café
882,Osdorp,52.36023,4.80476,bakkerij kara firin osdorper ban,52.362237,4.799815,Bakery
883,Osdorp,52.36023,4.80476,viswinkel,52.360652,4.798524,Fish Market
884,Osdorp,52.36023,4.80476,La Galleria,52.36177680020687,4.798194624722385,Italian Restaurant
885,Osdorp,52.36008,4.80485,KING Kumpir Osdorp,52.35908369,4.805177,Vegetarian / Vegan Restaurant
886,Osdorp,52.36008,4.80485,TK Maxx,52.35892191615011,4.805054979652113,Clothing Store
887,Osdorp,52.36008,4.80485,De Meervaart,52.358970325125746,4.807310964256825,Theater
888,Osdorp,52.36008,4.80485,Sahan Restaurant,52.35836579204695,4.8003088795736115,Turkish Restaurant
889,Osdorp,52.36008,4.80485,Albert Heijn XL,52.35936925871119,4.802355948345206,Supermarket
890,Osdorp,52.36008,4.80485,Ken-Ichi,52.35830225502692,4.800566091948069,Sushi Restaurant
891,Osdorp,52.36008,4.80485,Citiez,52.35927163044513,4.804102132629927,Hotel
892,Osdorp,52.36008,4.80485,Meram Osdorp,52.360281793025734,4.808239144212434,Turkish Restaurant
893,Osdorp,52.36008,4.80485,HEMA,52.3587731,4.8038868,Department Store
894,Osdorp,52.36008,4.80485,Action,52.35880230135715,4.8047312727487155,Discount Store
895,Osdorp,52.36008,4.80485,Stadspark Osdorp,52.35766499732175,4.798734571913346,Park
896,Osdorp,52.36008,4.80485,Brasserie De Serre,52.358757,4.8049736,Dutch Restaurant
897,Osdorp,52.36008,4.80485,Kruidvat,52.35938917446104,4.806192284873515,Drugstore
898,Osdorp,52.36008,4.80485,H&M,52.35960324857142,4.805846415805486,Clothing Store
899,Osdorp,52.36008,4.80485,Winkelcentrum Osdorpplein,52.35823569564807,4.806964074233381,Shopping Mall
900,Osdorp,52.36008,4.80485,Kruidvat,52.35969528623045,4.806451531046506,Drugstore
901,Osdorp,52.36008,4.80485,McDonald's,52.35964549069796,4.805411982803321,Fast Food Restaurant
902,Osdorp,52.36008,4.80485,Coffee Blends,52.358565,4.801622,Coffee Shop
903,Osdorp,52.36008,4.80485,Dirk van den Broek,52.358175,4.8027974,Supermarket
904,Osdorp,52.36008,4.80485,Shoperade,52.35824584124092,4.806903691249871,Shopping Mall
905,Osdorp,52.36008,4.80485,Febo,52.358085330954815,4.800173119234341,Snack Place
906,Osdorp,52.36008,4.80485,ALDI,52.36201356294424,4.79874443971607,Supermarket
907,Osdorp,52.36008,4.80485,Natuurwinkel Osdorp,52.358616,4.804485,Herbs & Spices Store
908,Osdorp,52.36008,4.80485,Sport City,52.359851355177625,4.807000552823147,Gym
909,Osdorp,52.36008,4.80485,Bushalte Ruimzicht,52.35973023317051,4.807527328319064,Bus Stop
910,Osdorp,52.36008,4.80485,Tramhalte Ruimzicht,52.35967378023241,4.807474417473887,Tram Station
911,Osdorp,52.36008,4.80485,Apotheek Caleidoscoop,52.3595772,4.8028825,Pharmacy
912,Osdorp,52.36008,4.80485,Blokker,52.35965847993876,4.8062657329765734,Furniture / Home Store
913,Osdorp,52.36008,4.80485,Talentenhuis,52.36165076268419,4.8060393591709865,Theater
914,Osdorp,52.36008,4.80485,Tramhalte Osdorpplein,52.35939076805102,4.803125747271212,Tram Station
915,Osdorp,52.36008,4.80485,IJscuypje,52.359302,4.806063,Ice Cream Shop
916,Osdorp,52.36008,4.80485,Holland & Barrett,52.35970342110627,4.808713987781494,Pharmacy
917,Osdorp,52.36008,4.80485,Bertram & brood,52.35848,4.800958,Bakery
918,Osdorp,52.36008,4.80485,Snackbar van Vliet,52.36239063817457,4.801161613917256,Snack Place
919,Osdorp,52.36008,4.80485,Cesme Lunchroom & Patisserie,52.36243,4.8010883,Bakery
920,Osdorp,52.36008,4.80485,Grand Café Sloterplas,52.36017104297609,4.807885298795483,Café
921,Osdorp,52.36008,4.80485,bakkerij kara firin osdorper ban,52.362237,4.799815,Bakery
922,Osdorp,52.36008,4.80485,viswinkel,52.360652,4.798524,Fish Market
923,Osdorp,52.36008,4.80485,La Galleria,52.36177680020687,4.798194624722385,Italian Restaurant
924,Osdorp,52.35987,4.80488,KING Kumpir Osdorp,52.35908369,4.805177,Vegetarian / Vegan Restaurant
925,Osdorp,52.35987,4.80488,TK Maxx,52.35892191615011,4.805054979652113,Clothing Store
926,Osdorp,52.35987,4.80488,De Meervaart,52.358970325125746,4.807310964256825,Theater
927,Osdorp,52.35987,4.80488,Sahan Restaurant,52.35836579204695,4.8003088795736115,Turkish Restaurant
928,Osdorp,52.35987,4.80488,Albert Heijn XL,52.35936925871119,4.802355948345206,Supermarket
929,Osdorp,52.35987,4.80488,Ken-Ichi,52.35830225502692,4.800566091948069,Sushi Restaurant
930,Osdorp,52.35987,4.80488,Citiez,52.35927163044513,4.804102132629927,Hotel
931,Osdorp,52.35987,4.80488,Meram Osdorp,52.360281793025734,4.808239144212434,Turkish Restaurant
932,Osdorp,52.35987,4.80488,HEMA,52.3587731,4.8038868,Department Store
933,Osdorp,52.35987,4.80488,Action,52.35880230135715,4.8047312727487155,Discount Store
934,Osdorp,52.35987,4.80488,Stadspark Osdorp,52.35766499732175,4.798734571913346,Park
935,Osdorp,52.35987,4.80488,Brasserie De Serre,52.358757,4.8049736,Dutch Restaurant
936,Osdorp,52.35987,4.80488,Kruidvat,52.35938917446104,4.806192284873515,Drugstore
937,Osdorp,52.35987,4.80488,H&M,52.35960324857142,4.805846415805486,Clothing Store
938,Osdorp,52.35987,4.80488,Winkelcentrum Osdorpplein,52.35823569564807,4.806964074233381,Shopping Mall
939,Osdorp,52.35987,4.80488,Kruidvat,52.35969528623045,4.806451531046506,Drugstore
940,Osdorp,52.35987,4.80488,McDonald's,52.35964549069796,4.805411982803321,Fast Food Restaurant
941,Osdorp,52.35987,4.80488,Coffee Blends,52.358565,4.801622,Coffee Shop
942,Osdorp,52.35987,4.80488,Dirk van den Broek,52.358175,4.8027974,Supermarket
943,Osdorp,52.35987,4.80488,Shoperade,52.35824584124092,4.806903691249871,Shopping Mall
944,Osdorp,52.35987,4.80488,Febo,52.358085330954815,4.800173119234341,Snack Place
945,Osdorp,52.35987,4.80488,ALDI,52.36201356294424,4.79874443971607,Supermarket
946,Osdorp,52.35987,4.80488,Natuurwinkel Osdorp,52.358616,4.804485,Herbs & Spices Store
947,Osdorp,52.35987,4.80488,Sport City,52.359851355177625,4.807000552823147,Gym
948,Osdorp,52.35987,4.80488,Bushalte Ruimzicht,52.35973023317051,4.807527328319064,Bus Stop
949,Osdorp,52.35987,4.80488,Tramhalte Ruimzicht,52.35967378023241,4.807474417473887,Tram Station
950,Osdorp,52.35987,4.80488,Apotheek Caleidoscoop,52.3595772,4.8028825,Pharmacy
951,Osdorp,52.35987,4.80488,Blokker,52.35965847993876,4.8062657329765734,Furniture / Home Store
952,Osdorp,52.35987,4.80488,Tramhalte Osdorpplein,52.35939076805102,4.803125747271212,Tram Station
953,Osdorp,52.35987,4.80488,IJscuypje,52.359302,4.806063,Ice Cream Shop
954,Osdorp,52.35987,4.80488,Talentenhuis,52.36165076268419,4.8060393591709865,Theater
955,Osdorp,52.35987,4.80488,Holland & Barrett,52.35970342110627,4.808713987781494,Pharmacy
956,Osdorp,52.35987,4.80488,Bertram & brood,52.35848,4.800958,Bakery
957,Osdorp,52.35987,4.80488,Snackbar van Vliet,52.36239063817457,4.801161613917256,Snack Place
958,Osdorp,52.35987,4.80488,Grand Café Sloterplas,52.36017104297609,4.807885298795483,Café
959,Osdorp,52.35987,4.80488,Cesme Lunchroom & Patisserie,52.36243,4.8010883,Bakery
960,Osdorp,52.35987,4.80488,bakkerij kara firin osdorper ban,52.362237,4.799815,Bakery
961,Osdorp,52.35987,4.80488,viswinkel,52.360652,4.798524,Fish Market
962,Osdorp,52.35896,4.80313,KING Kumpir Osdorp,52.35908369,4.805177,Vegetarian / Vegan Restaurant
963,Osdorp,52.35896,4.80313,Sahan Restaurant,52.35836579204695,4.8003088795736115,Turkish Restaurant
964,Osdorp,52.35896,4.80313,TK Maxx,52.35892191615011,4.805054979652113,Clothing Store
965,Osdorp,52.35896,4.80313,Ken-Ichi,52.35830225502692,4.800566091948069,Sushi Restaurant
966,Osdorp,52.35896,4.80313,De Meervaart,52.358970325125746,4.807310964256825,Theater
967,Osdorp,52.35896,4.80313,Albert Heijn XL,52.35936925871119,4.802355948345206,Supermarket
968,Osdorp,52.35896,4.80313,Citiez,52.35927163044513,4.804102132629927,Hotel
969,Osdorp,52.35896,4.80313,Stadspark Osdorp,52.35766499732175,4.798734571913346,Park
970,Osdorp,52.35896,4.80313,HEMA,52.3587731,4.8038868,Department Store
971,Osdorp,52.35896,4.80313,Action,52.35880230135715,4.8047312727487155,Discount Store
972,Osdorp,52.35896,4.80313,Meram Osdorp,52.360281793025734,4.808239144212434,Turkish Restaurant
973,Osdorp,52.35896,4.80313,Brasserie De Serre,52.358757,4.8049736,Dutch Restaurant
974,Osdorp,52.35896,4.80313,H&M,52.35960324857142,4.805846415805486,Clothing Store
975,Osdorp,52.35896,4.80313,Kruidvat,52.35938917446104,4.806192284873515,Drugstore
976,Osdorp,52.35896,4.80313,Winkelcentrum Osdorpplein,52.35823569564807,4.806964074233381,Shopping Mall
977,Osdorp,52.35896,4.80313,Kruidvat,52.35969528623045,4.806451531046506,Drugstore
978,Osdorp,52.35896,4.80313,Coffee Blends,52.358565,4.801622,Coffee Shop
979,Osdorp,52.35896,4.80313,McDonald's,52.35964549069796,4.805411982803321,Fast Food Restaurant
980,Osdorp,52.35896,4.80313,Febo,52.358085330954815,4.800173119234341,Snack Place
981,Osdorp,52.35896,4.80313,Dirk van den Broek,52.358175,4.8027974,Supermarket
982,Osdorp,52.35896,4.80313,Shoperade,52.35824584124092,4.806903691249871,Shopping Mall
983,Osdorp,52.35896,4.80313,ALDI,52.36201356294424,4.79874443971607,Supermarket
984,Osdorp,52.35896,4.80313,Natuurwinkel Osdorp,52.358616,4.804485,Herbs & Spices Store
985,Osdorp,52.35896,4.80313,Bertram & brood,52.35848,4.800958,Bakery
986,Osdorp,52.35896,4.80313,Apotheek Caleidoscoop,52.3595772,4.8028825,Pharmacy
987,Osdorp,52.35896,4.80313,Tramhalte Osdorpplein,52.35939076805102,4.803125747271212,Tram Station
988,Osdorp,52.35896,4.80313,IJscuypje,52.359302,4.806063,Ice Cream Shop
989,Osdorp,52.35896,4.80313,Blokker,52.35965847993876,4.8062657329765734,Furniture / Home Store
990,Osdorp,52.35896,4.80313,Sport City,52.359851355177625,4.807000552823147,Gym
991,Osdorp,52.35896,4.80313,Tramhalte Ruimzicht,52.35967378023241,4.807474417473887,Tram Station
992,Osdorp,52.35896,4.80313,Bushalte Ruimzicht,52.35973023317051,4.807527328319064,Bus Stop
993,Osdorp,52.35896,4.80313,Talentenhuis,52.36165076268419,4.8060393591709865,Theater
994,Osdorp,52.35896,4.80313,viswinkel,52.360652,4.798524,Fish Market
995,Osdorp,52.35896,4.80313,Holland & Barrett,52.35970342110627,4.808713987781494,Pharmacy
996,Osdorp,52.35896,4.80313,Snackbar van Vliet,52.36239063817457,4.801161613917256,Snack Place
997,Osdorp,52.35896,4.80313,Cesme Lunchroom & Patisserie,52.36243,4.8010883,Bakery
998,Osdorp,52.35896,4.80313,bakkerij kara firin osdorper ban,52.362237,4.799815,Bakery
999,Osdorp,52.35896,4.80313,La Galleria,52.36177680020687,4.798194624722385,Italian Restaurant
1000,Osdorp,52.35896,4.80313,Grand Café Sloterplas,52.36017104297609,4.807885298795483,Café
1001,De Aker - Nieuw Sloten,52.348686,4.783513,Jumbo,52.34966245575485,4.786839699212023,Supermarket
1002,De Aker - Nieuw Sloten,52.348686,4.783513,Theehuis de Akermolen,52.34601173648387,4.781351305760543,Tea Room
1003,De Aker - Nieuw Sloten,52.348686,4.783513,Tramhalte Inaristraat,52.35035968612119,4.783087979023896,Tram Station
1004,De Aker - Nieuw Sloten,52.348686,4.783513,Snackbar Julias,52.349462,4.785834,Snack Place
1005,De Aker - Nieuw Sloten,52.348686,4.783513,Apotheek De Vaart,52.350017745123516,4.785770381328684,Pharmacy
1006,De Aker - Nieuw Sloten,52.348686,4.783513,topvis,52.34978443194958,4.7864104876617946,Fish & Chips Shop
1007,De Aker - Nieuw Sloten,52.348686,4.783513,Etos,52.34962826802975,4.787399768829346,Drugstore
1008,De Aker - Nieuw Sloten,52.348686,4.783513,Pontje van theehuis De Akermolen,52.346118666273604,4.780592322349548,Boat or Ferry
1009,De Aker - Nieuw Sloten,52.348686,4.783513,Tramhalte Ecuplein,52.34982081755209,4.788525192511967,Tram Station
1010,De Aker - Nieuw Sloten,52.348686,4.783513,Restaurant Pizzeria il Paradiso,52.35112549620568,4.779937581826617,Pizza Place
1011,De Aker - Nieuw Sloten,52.348686,4.783513,Bakkerij van Toor - de Aker,52.34959360759057,4.788845324743155,Bakery
1012,De Aker - Nieuw Sloten,52.348686,4.783513,Vishandel Schilder,52.348359,4.789036,Fish Market
1013,De Aker - Nieuw Sloten,52.348686,4.783513,De Kaas Specialist,52.34834,4.789209,Cheese Shop
1014,Geuzenveld - Slotermeer,52.38087,4.78116,Tuinen van West,52.37981224656211,4.778045376424497,Garden
1015,Geuzenveld - Slotermeer,52.38087,4.78116,Het Rijk van de Keizer,52.38335,4.7798354,Event Space
1016,Geuzenveld - Slotermeer,52.38087,4.78116,Nederlandse Rugby BondRugby,52.37851423456072,4.786220975992434,Stadium
